loteria,nome,concurso,data,local,dezenas,premiacoes,estadosPremiados,acumulou,acumuladaProxConcurso,dataProxConcurso,proxConcurso,timeCoracao,mesSorte
lotofacil,Lotofácil,2616,17/09/2022,"ESPAÇODASORTE em SÃOPAULO,SP","['01', '02', '03', '04', '06', '07', '09', '10', '12', '14', '16', '18', '21', '22', '25']","[{'acertos': '15 Pontos', 'vencedores': 3, 'premio': '527.312,02'}, {'acertos': '14 Pontos', 'vencedores': 237, 'premio': '1.399,56'}, {'acertos': '13 Pontos', 'vencedores': 8935, 'premio': '25,00'}, {'acertos': '12 Pontos', 'vencedores': 111457, 'premio': '10,00'}, {'acertos': '11 Pontos', 'vencedores': 584917, 'premio': '5,00'}]","[{'nome': 'Bahia', 'uf': 'BA', 'vencedores': '1', 'latitude': '-12.579738', 'longitude': '-41.7007272', 'cidades': [{'cidade': 'Salvador', 'vencedores': '1', 'latitude': '-12.977749', 'longitude': '-38.5016301'}]}, {'nome': 'Mato Grosso', 'uf': 'MT', 'vencedores': '1', 'latitude': '-12.6818712', 'longitude': '-56.921099', 'cidades': [{'cidade': '', 'vencedores': '1', 'latitude': None, 'longitude': None}]}, {'nome': 'Rio de Janeiro', 'uf': 'RJ', 'vencedores': '1', 'latitude': '34.948626', 'longitude': '@@GTo08', 'cidades': [{'cidade': 'Resende', 'vencedores': '1', 'latitude': '-22.4713608', 'longitude': '-44.453408'}]}]",False,"R$ 1,5 Milhão",19/09/2022,2617,,
lotofacil,Lotofácil,2615,16/09/2022,"ESPAÇODASORTE em SÃOPAULO,SP","['02', '03', '05', '06', '08', '09', '10', '14', '15', '17', '19', '20', '21', '22', '25']","[{'acertos': '15 Pontos', 'vencedores': 5, 'premio': '793.883,50'}, {'acertos': '14 Pontos', 'vencedores': 626, 'premio': '1.125,25'}, {'acertos': '13 Pontos', 'vencedores': 18729, 'premio': '25,00'}, {'acertos': '12 Pontos', 'vencedores': 210783, 'premio': '10,00'}, {'acertos': '11 Pontos', 'vencedores': 1081765, 'premio': '5,00'}]","[{'nome': 'Paraná', 'uf': 'PR', 'vencedores': '1', 'latitude': '-25.2520888', 'longitude': '-52.0215415', 'cidades': [{'cidade': 'Curitiba', 'vencedores': '1', 'latitude': '-25.4808762', 'longitude': '-49.3044253'}]}, {'nome': 'Rio Grande do Sul', 'uf': 'RS', 'vencedores': '2', 'latitude': '-30.0346316', 'longitude': '-51.2176986', 'cidades': [{'cidade': 'Guaíba', 'vencedores': '1', 'latitude': None, 'longitude': None}, {'cidade': 'Porto Alegre', 'vencedores': '2', 'latitude': '-30.0346471', 'longitude': '-51.2176584'}]}, {'nome': 'São Paulo', 'uf': 'SP', 'vencedores': '1', 'latitude': '-23.5557714', 'longitude': '-46.6395571', 'cidades': []}, {'nome': 'São Paulo', 'uf': 'SP', 'vencedores': '1', 'latitude': '-23.5557714', 'longitude': '-46.6395571', 'cidades': []}]",False,,,2616,,
lotofacil,Lotofácil,2614,15/09/2022,"ESPAÇODASORTE em SÃOPAULO,SP","['01', '02', '03', '04', '06', '10', '13', '16', '17', '19', '20', '21', '23', '24', '25']","[{'acertos': '15 Pontos', 'vencedores': 0, 'premio': '-'}, {'acertos': '14 Pontos', 'vencedores': 169, 'premio': '2.007,18'}, {'acertos': '13 Pontos', 'vencedores': 7370, 'premio': '25,00'}, {'acertos': '12 Pontos', 'vencedores': 105757, 'premio': '10,00'}, {'acertos': '11 Pontos', 'vencedores': 567636, 'premio': '5,00'}]",[],True,,,2615,,
lotofacil,Lotofácil,2613,14/09/2022,"ESPAÇODASORTE em SÃOPAULO,SP","['01', '02', '03', '05', '06', '08', '11', '14', '15', '16', '18', '19', '20', '21', '25']","[{'acertos': '15 Pontos', 'vencedores': 2, 'premio': '771.473,59'}, {'acertos': '14 Pontos', 'vencedores': 233, 'premio': '1.388,50'}, {'acertos': '13 Pontos', 'vencedores': 9521, 'premio': '25,00'}, {'acertos': '12 Pontos', 'vencedores': 136449, 'premio': '10,00'}, {'acertos': '11 Pontos', 'vencedores': 628634, 'premio': '5,00'}]","[{'nome': 'Paraíba', 'uf': 'PB', 'vencedores': '1', 'latitude': '-7.239960900000001', 'longitude': '-36.7819505', 'cidades': [{'cidade': 'João Pessoa', 'vencedores': '1', 'latitude': '-7.119495799999999', 'longitude': '-34.8450118'}]}, {'nome': 'São Paulo', 'uf': 'SP', 'vencedores': '1', 'latitude': '-23.5557714', 'longitude': '-46.6395571', 'cidades': [{'cidade': 'Guarulhos', 'vencedores': '1', 'latitude': '-23.4543395', 'longitude': '-46.5336678'}]}]",False,,,2614,,
lotofacil,Lotofácil,2612,13/09/2022,"ESPAÇODASORTE em SÃOPAULO,SP","['01', '03', '06', '09', '10', '11', '13', '16', '17', '18', '19', '20', '21', '23', '25']","[{'acertos': '15 Pontos', 'vencedores': 1, 'premio': '1.235.457,93'}, {'acertos': '14 Pontos', 'vencedores': 360, 'premio': '1.027,96'}, {'acertos': '13 Pontos', 'vencedores': 14219, 'premio': '25,00'}, {'acertos': '12 Pontos', 'vencedores': 169771, 'premio': '10,00'}, {'acertos': '11 Pontos', 'vencedores': 725249, 'premio': '5,00'}]","[{'nome': 'São Paulo', 'uf': 'SP', 'vencedores': '1', 'latitude': '-23.5557714', 'longitude': '-46.6395571', 'cidades': [{'cidade': '', 'vencedores': '1', 'latitude': None, 'longitude': None}]}]",False,,,2613,,
lotofacil,Lotofácil,2611,12/09/2022,"ESPAÇODASORTE em SÃOPAULO,SP","['02', '03', '04', '05', '06', '07', '08', '13', '14', '15', '17', '19', '21', '22', '25']","[{'acertos': '15 Pontos', 'vencedores': 4, 'premio': '435.307,17'}, {'acertos': '14 Pontos', 'vencedores': 320, 'premio': '1.629,89'}, {'acertos': '13 Pontos', 'vencedores': 11722, 'premio': '25,00'}, {'acertos': '12 Pontos', 'vencedores': 137987, 'premio': '10,00'}, {'acertos': '11 Pontos', 'vencedores': 753371, 'premio': '5,00'}]","[{'nome': 'Mato Grosso', 'uf': 'MT', 'vencedores': '1', 'latitude': '-12.6818712', 'longitude': '-56.921099', 'cidades': [{'cidade': '', 'vencedores': '1', 'latitude': None, 'longitude': None}]}, {'nome': 'Pernambuco', 'uf': 'PE', 'vencedores': '1', 'latitude': '-8.8137173', 'longitude': '-36.954107', 'cidades': [{'cidade': 'Caruaru', 'vencedores': '1', 'latitude': '-8.276017999999999', 'longitude': '-35.9819367'}]}, {'nome': 'Paraná', 'uf': 'PR', 'vencedores': '1', 'latitude': '-25.2520888', 'longitude': '-52.0215415', 'cidades': [{'cidade': '', 'vencedores': '1', 'latitude': None, 'longitude': None}]}]",False,,,2612,,
lotofacil,Lotofácil,2610,10/09/2022,"ESPAÇODASORTE em SÃOPAULO,SP","['01', '03', '05', '07', '08', '09', '10', '11', '12', '15', '16', '17', '20', '22', '24']","[{'acertos': '15 Pontos', 'vencedores': 79, 'premio': '2.248.149,10'}, {'acertos': '14 Pontos', 'vencedores': 12202, 'premio': '1.118,16'}, {'acertos': '13 Pontos', 'vencedores': 378406, 'premio': '25,00'}, {'acertos': '12 Pontos', 'vencedores': 4292807, 'premio': '10,00'}, {'acertos': '11 Pontos', 'vencedores': 22099555, 'premio': '5,00'}]","[{'nome': 'São Paulo', 'uf': 'SP', 'vencedores': '79', 'latitude': '-23.5557714', 'longitude': '-46.6395571', 'cidades': [{'cidade': '', 'vencedores': '79', 'latitude': None, 'longitude': None}]}]",False,,,2611,,
lotofacil,Lotofácil,2609,26/08/2022,"ESPAÇODASORTE em SÃOPAULO,SP","['03', '05', '06', '07', '09', '11', '12', '15', '17', '18', '19', '20', '21', '24', '25']","[{'acertos': '15 Pontos', 'vencedores': 3, 'premio': '1.834.872,76'}, {'acertos': '14 Pontos', 'vencedores': 622, 'premio': '1.138,78'}, {'acertos': '13 Pontos', 'vencedores': 22385, 'premio': '25,00'}, {'acertos': '12 Pontos', 'vencedores': 267333, 'premio': '10,00'}, {'acertos': '11 Pontos', 'vencedores': 1350089, 'premio': '5,00'}]","[{'nome': 'Maranhão', 'uf': 'MA', 'vencedores': '1', 'latitude': '42.4072107', 'longitude': '-71.3824374', 'cidades': [{'cidade': 'São Luís', 'vencedores': '1', 'latitude': '-2.5391099', 'longitude': '-44.28290459999999'}]}, {'nome': 'Minas Gerais', 'uf': 'MG', 'vencedores': '1', 'latitude': '-18.512178', 'longitude': '-44.5550308', 'cidades': [{'cidade': 'Belo Horizonte', 'vencedores': '1', 'latitude': '-19.9166813', 'longitude': '-43.9344931'}]}, {'nome': 'Paraná', 'uf': 'PR', 'vencedores': '1', 'latitude': '-25.2520888', 'longitude': '-52.0215415', 'cidades': [{'cidade': 'Londrina', 'vencedores': '1', 'latitude': '-23.3044524', 'longitude': '-51.1695824'}]}]",True,R$ 180 Milhões,10/09/2022,2610,,
lotofacil,Lotofácil,2608,25/08/2022,"ESPAÇODASORTE em SÃOPAULO,SP","['01', '02', '04', '08', '09', '11', '12', '14', '15', '17', '18', '19', '23', '24', '25']","[{'acertos': '15 Pontos', 'vencedores': 0, 'premio': '-'}, {'acertos': '14 Pontos', 'vencedores': 452, 'premio': '1.203,37'}, {'acertos': '13 Pontos', 'vencedores': 14962, 'premio': '25,00'}, {'acertos': '12 Pontos', 'vencedores': 169249, 'premio': '10,00'}, {'acertos': '11 Pontos', 'vencedores': 871052, 'premio': '5,00'}]",[],True,,,2609,,
lotofacil,Lotofácil,2607,24/08/2022,"ESPAÇODASORTE em SÃOPAULO,SP","['01', '03', '05', '07', '08', '09', '10', '14', '16', '17', '18', '22', '23', '24', '25']","[{'acertos': '15 Pontos', 'vencedores': 0, 'premio': '-'}, {'acertos': '14 Pontos', 'vencedores': 218, 'premio': '1.819,26'}, {'acertos': '13 Pontos', 'vencedores': 8847, 'premio': '25,00'}, {'acertos': '12 Pontos', 'vencedores': 114682, 'premio': '10,00'}, {'acertos': '11 Pontos', 'vencedores': 627647, 'premio': '5,00'}]",[],True,,,2608,,
lotofacil,Lotofácil,2606,23/08/2022,"ESPAÇODASORTE em SÃOPAULO,SP","['03', '06', '07', '08', '09', '10', '11', '14', '16', '18', '19', '20', '21', '23', '24']","[{'acertos': '15 Pontos', 'vencedores': 1, 'premio': '1.506.192,02'}, {'acertos': '14 Pontos', 'vencedores': 170, 'premio': '1.857,73'}, {'acertos': '13 Pontos', 'vencedores': 6385, 'premio': '25,00'}, {'acertos': '12 Pontos', 'vencedores': 88884, 'premio': '10,00'}, {'acertos': '11 Pontos', 'vencedores': 518880, 'premio': '5,00'}]","[{'nome': 'Espírito Santo', 'uf': 'ES', 'vencedores': '1', 'latitude': '-19.1834229', 'longitude': '-40.3088626', 'cidades': [{'cidade': 'Serra', 'vencedores': '1', 'latitude': '-20.1228954', 'longitude': '-40.3054099'}]}]",False,,,2607,,
lotofacil,Lotofácil,2605,22/08/2022,"ESPAÇODASORTE em SÃOPAULO,SP","['01', '02', '05', '07', '09', '11', '12', '15', '16', '19', '21', '22', '23', '24', '25']","[{'acertos': '15 Pontos', 'vencedores': 4, 'premio': '859.989,56'}, {'acertos': '14 Pontos', 'vencedores': 618, 'premio': '990,31'}, {'acertos': '13 Pontos', 'vencedores': 20777, 'premio': '25,00'}, {'acertos': '12 Pontos', 'vencedores': 222910, 'premio': '10,00'}, {'acertos': '11 Pontos', 'vencedores': 1100004, 'premio': '5,00'}]","[{'nome': 'Amazonas', 'uf': 'AM', 'vencedores': '1', 'latitude': '-3.4168427', 'longitude': '-65.8560646', 'cidades': [{'cidade': 'Manaus', 'vencedores': '1', 'latitude': '-3.1190275', 'longitude': '-60.0217314'}]}, {'nome': 'Minas Gerais', 'uf': 'MG', 'vencedores': '1', 'latitude': '-18.512178', 'longitude': '-44.5550308', 'cidades': [{'cidade': '', 'vencedores': '1', 'latitude': None, 'longitude': None}]}, {'nome': 'Rio de Janeiro', 'uf': 'RJ', 'vencedores': '1', 'latitude': '34.948626', 'longitude': '@@GTo08', 'cidades': [{'cidade': '', 'vencedores': '1', 'latitude': None, 'longitude': None}]}, {'nome': 'Santa Catarina', 'uf': 'SC', 'vencedores': '1', 'latitude': '-27.336122', 'longitude': '-50.071794', 'cidades': [{'cidade': 'Mafra', 'vencedores': '1', 'latitude': None, 'longitude': None}]}]",False,,,2606,,
lotofacil,Lotofácil,2604,20/08/2022,"ESPAÇODASORTE em SÃOPAULO,SP","['04', '05', '06', '07', '09', '12', '13', '14', '15', '16', '18', '19', '20', '22', '23']","[{'acertos': '15 Pontos', 'vencedores': 0, 'premio': '-'}, {'acertos': '14 Pontos', 'vencedores': 344, 'premio': '1.216,24'}, {'acertos': '13 Pontos', 'vencedores': 9154, 'premio': '25,00'}, {'acertos': '12 Pontos', 'vencedores': 111676, 'premio': '10,00'}, {'acertos': '11 Pontos', 'vencedores': 586529, 'premio': '5,00'}]",[],True,,,2605,,
lotofacil,Lotofácil,2603,19/08/2022,"ESPAÇODASORTE em SÃOPAULO,SP","['02', '03', '05', '07', '09', '10', '11', '13', '15', '17', '19', '20', '21', '24', '25']","[{'acertos': '15 Pontos', 'vencedores': 37, 'premio': '12.377,36'}, {'acertos': '14 Pontos', 'vencedores': 2129, 'premio': '64,43'}, {'acertos': '13 Pontos', 'vencedores': 32909, 'premio': '25,00'}, {'acertos': '12 Pontos', 'vencedores': 213915, 'premio': '10,00'}, {'acertos': '11 Pontos', 'vencedores': 802684, 'premio': '5,00'}]","[{'nome': 'Bahia', 'uf': 'BA', 'vencedores': '1', 'latitude': '-12.579738', 'longitude': '-41.7007272', 'cidades': [{'cidade': 'Camaçari', 'vencedores': '1', 'latitude': '-12.6971776', 'longitude': '-38.3331983'}]}, {'nome': 'Bahia', 'uf': 'BA', 'vencedores': '1', 'latitude': '-12.579738', 'longitude': '-41.7007272', 'cidades': [{'cidade': 'Paramirim', 'vencedores': '1', 'latitude': None, 'longitude': None}]}, {'nome': 'Bahia', 'uf': 'BA', 'vencedores': '1', 'latitude': '-12.579738', 'longitude': '-41.7007272', 'cidades': [{'cidade': 'Salvador', 'vencedores': '1', 'latitude': '-12.977749', 'longitude': '-38.5016301'}]}, {'nome': 'Ceará', 'uf': 'CE', 'vencedores': '1', 'latitude': '-5.4983977', 'longitude': '-39.3206241', 'cidades': [{'cidade': 'Fortaleza', 'vencedores': '1', 'latitude': '-3.7327144', 'longitude': '-38.5269981'}]}, {'nome': 'Distrito Federal', 'uf': 'DF', 'vencedores': '1', 'latitude': '-15.7997654', 'longitude': '-47.8644715', 'cidades': [{'cidade': 'Brasília', 'vencedores': '1', 'latitude': '-15.826691', 'longitude': '-47.92182039999999'}]}, {'nome': 'Goiás', 'uf': 'GO', 'vencedores': '1', 'latitude': '36.7156122', 'longitude': '-95.9435511', 'cidades': [{'cidade': '', 'vencedores': '1', 'latitude': None, 'longitude': None}]}, {'nome': 'Minas Gerais', 'uf': 'MG', 'vencedores': '1', 'latitude': '-18.512178', 'longitude': '-44.5550308', 'cidades': [{'cidade': '', 'vencedores': '1', 'latitude': None, 'longitude': None}]}, {'nome': 'Minas Gerais', 'uf': 'MG', 'vencedores': '1', 'latitude': '-18.512178', 'longitude': '-44.5550308', 'cidades': [{'cidade': 'Ipatinga', 'vencedores': '1', 'latitude': '-19.4691377', 'longitude': '-42.5489888'}]}, {'nome': 'Minas Gerais', 'uf': 'MG', 'vencedores': '1', 'latitude': '-18.512178', 'longitude': '-44.5550308', 'cidades': [{'cidade': 'Itinga', 'vencedores': '1', 'latitude': None, 'longitude': None}]}, {'nome': 'Mato Grosso', 'uf': 'MT', 'vencedores': '1', 'latitude': '-12.6818712', 'longitude': '-56.921099', 'cidades': [{'cidade': 'Cuiabá', 'vencedores': '1', 'latitude': '-15.6014109', 'longitude': '-56.0978917'}]}, {'nome': 'Mato Grosso', 'uf': 'MT', 'vencedores': '1', 'latitude': '-12.6818712', 'longitude': '-56.921099', 'cidades': [{'cidade': 'Nova Ubiratã', 'vencedores': '1', 'latitude': None, 'longitude': None}]}, {'nome': 'Paraíba', 'uf': 'PB', 'vencedores': '1', 'latitude': '-7.239960900000001', 'longitude': '-36.7819505', 'cidades': [{'cidade': '', 'vencedores': '1', 'latitude': None, 'longitude': None}]}, {'nome': 'Pernambuco', 'uf': 'PE', 'vencedores': '1', 'latitude': '-8.8137173', 'longitude': '-36.954107', 'cidades': [{'cidade': 'Recife', 'vencedores': '1', 'latitude': '-8.0522404', 'longitude': '-34.9286096'}]}, {'nome': 'Piauí', 'uf': 'PI', 'vencedores': '1', 'latitude': '38.65501260000001', 'longitude': '-90.2977494', 'cidades': [{'cidade': 'Teresina', 'vencedores': '1', 'latitude': '-5.0920108', 'longitude': '-42.80375970000001'}]}, {'nome': 'Paraná', 'uf': 'PR', 'vencedores': '1', 'latitude': '-25.2520888', 'longitude': '-52.0215415', 'cidades': [{'cidade': 'Cascavel', 'vencedores': '1', 'latitude': '-24.9577771', 'longitude': '-53.45951119999999'}]}, {'nome': 'Paraná', 'uf': 'PR', 'vencedores': '1', 'latitude': '-25.2520888', 'longitude': '-52.0215415', 'cidades': [{'cidade': 'Laranjeiras do Sul', 'vencedores': '1', 'latitude': None, 'longitude': None}]}, {'nome': 'Paraná', 'uf': 'PR', 'vencedores': '1', 'latitude': '-25.2520888', 'longitude': '-52.0215415', 'cidades': [{'cidade': 'Marialva', 'vencedores': '1', 'latitude': '-23.4827951', 'longitude': '-51.8007559'}]}, {'nome': 'Paraná', 'uf': 'PR', 'vencedores': '1', 'latitude': '-25.2520888', 'longitude': '-52.0215415', 'cidades': [{'cidade': 'Matinhos', 'vencedores': '1', 'latitude': None, 'longitude': None}]}, {'nome': 'Rio de Janeiro', 'uf': 'RJ', 'vencedores': '1', 'latitude': '34.948626', 'longitude': '@@GTo08', 'cidades': [{'cidade': '', 'vencedores': '1', 'latitude': None, 'longitude': None}]}, {'nome': 'Santa Catarina', 'uf': 'SC', 'vencedores': '1', 'latitude': '-27.336122', 'longitude': '-50.071794', 'cidades': [{'cidade': 'Camboriú', 'vencedores': '1', 'latitude': None, 'longitude': None}]}, {'nome': 'São Paulo', 'uf': 'SP', 'vencedores': '3', 'latitude': '-23.5557714', 'longitude': '-46.6395571', 'cidades': [{'cidade': 'Campinas', 'vencedores': '1', 'latitude': '-22.9329252', 'longitude': '-47.073845'}, {'cidade': 'Guaíra', 'vencedores': '1', 'latitude': None, 'longitude': None}, {'cidade': 'Guapiaçu', 'vencedores': '1', 'latitude': '-20.7940132', 'longitude': '-49.2211274'}]}, {'nome': 'São Paulo', 'uf': 'SP', 'vencedores': '3', 'latitude': '-23.5557714', 'longitude': '-46.6395571', 'cidades': [{'cidade': 'Iracemápolis', 'vencedores': '1', 'latitude': None, 'longitude': None}, {'cidade': 'Porto Feliz', 'vencedores': '1', 'latitude': None, 'longitude': None}, {'cidade': 'Presidente Prudente', 'vencedores': '1', 'latitude': '-22.1373112', 'longitude': '-51.3889736'}]}, {'nome': 'São Paulo', 'uf': 'SP', 'vencedores': '3', 'latitude': '-23.5557714', 'longitude': '-46.6395571', 'cidades': []}, {'nome': 'São Paulo', 'uf': 'SP', 'vencedores': '3', 'latitude': '-23.5557714', 'longitude': '-46.6395571', 'cidades': []}]",False,,,2604,,
lotofacil,Lotofácil,2602,18/08/2022,"ESPAÇODASORTE em SÃOPAULO,SP","['01', '02', '03', '04', '05', '06', '08', '10', '11', '12', '16', '18', '19', '20', '23']","[{'acertos': '15 Pontos', 'vencedores': 1, 'premio': '1.364.406,08'}, {'acertos': '14 Pontos', 'vencedores': 184, 'premio': '1.554,81'}, {'acertos': '13 Pontos', 'vencedores': 7005, 'premio': '25,00'}, {'acertos': '12 Pontos', 'vencedores': 97649, 'premio': '10,00'}, {'acertos': '11 Pontos', 'vencedores': 562358, 'premio': '5,00'}]","[{'nome': 'Acre', 'uf': 'AC', 'vencedores': '1', 'latitude': '-9.0237964', 'longitude': '-70.81199529999999', 'cidades': [{'cidade': '', 'vencedores': '1', 'latitude': None, 'longitude': None}]}]",False,,,2603,,
lotofacil,Lotofácil,2601,17/08/2022,"ESPAÇODASORTE em SÃOPAULO,SP","['01', '03', '04', '05', '06', '07', '13', '15', '16', '17', '20', '21', '22', '23', '24']","[{'acertos': '15 Pontos', 'vencedores': 1, 'premio': '1.503.054,67'}, {'acertos': '14 Pontos', 'vencedores': 265, 'premio': '1.698,95'}, {'acertos': '13 Pontos', 'vencedores': 8878, 'premio': '25,00'}, {'acertos': '12 Pontos', 'vencedores': 112929, 'premio': '10,00'}, {'acertos': '11 Pontos', 'vencedores': 625544, 'premio': '5,00'}]","[{'nome': 'São Paulo', 'uf': 'SP', 'vencedores': '1', 'latitude': '-23.5557714', 'longitude': '-46.6395571', 'cidades': [{'cidade': 'Itatiba', 'vencedores': '1', 'latitude': '-23.0074583', 'longitude': '-46.8187529'}]}]",False,,,2602,,
lotofacil,Lotofácil,2600,16/08/2022,"ESPAÇODASORTE em SÃOPAULO,SP","['02', '05', '07', '09', '10', '11', '12', '14', '15', '16', '18', '22', '23', '24', '25']","[{'acertos': '15 Pontos', 'vencedores': 3, 'premio': '1.683.723,53'}, {'acertos': '14 Pontos', 'vencedores': 683, 'premio': '832,90'}, {'acertos': '13 Pontos', 'vencedores': 24105, 'premio': '25,00'}, {'acertos': '12 Pontos', 'vencedores': 248538, 'premio': '10,00'}, {'acertos': '11 Pontos', 'vencedores': 1208226, 'premio': '5,00'}]","[{'nome': 'Pernambuco', 'uf': 'PE', 'vencedores': '1', 'latitude': '-8.8137173', 'longitude': '-36.954107', 'cidades': [{'cidade': 'Recife', 'vencedores': '1', 'latitude': '-8.0522404', 'longitude': '-34.9286096'}]}, {'nome': 'Paraná', 'uf': 'PR', 'vencedores': '1', 'latitude': '-25.2520888', 'longitude': '-52.0215415', 'cidades': [{'cidade': 'Curitiba', 'vencedores': '1', 'latitude': '-25.4808762', 'longitude': '-49.3044253'}]}, {'nome': 'São Paulo', 'uf': 'SP', 'vencedores': '1', 'latitude': '-23.5557714', 'longitude': '-46.6395571', 'cidades': [{'cidade': 'Taubaté', 'vencedores': '1', 'latitude': '-23.0225753', 'longitude': '-45.5486715'}]}]",False,,,2601,,
lotofacil,Lotofácil,2599,15/08/2022,"ESPAÇODASORTE em SÃOPAULO,SP","['01', '02', '03', '04', '06', '08', '09', '10', '11', '13', '17', '18', '19', '22', '23']","[{'acertos': '15 Pontos', 'vencedores': 3, 'premio': '1.183.110,65'}, {'acertos': '14 Pontos', 'vencedores': 445, 'premio': '1.491,60'}, {'acertos': '13 Pontos', 'vencedores': 15253, 'premio': '25,00'}, {'acertos': '12 Pontos', 'vencedores': 186167, 'premio': '10,00'}, {'acertos': '11 Pontos', 'vencedores': 939489, 'premio': '5,00'}]","[{'nome': 'Bahia', 'uf': 'BA', 'vencedores': '1', 'latitude': '-12.579738', 'longitude': '-41.7007272', 'cidades': [{'cidade': 'Salvador', 'vencedores': '1', 'latitude': '-12.977749', 'longitude': '-38.5016301'}]}, {'nome': 'Santa Catarina', 'uf': 'SC', 'vencedores': '1', 'latitude': '-27.336122', 'longitude': '-50.071794', 'cidades': [{'cidade': 'Mafra', 'vencedores': '1', 'latitude': None, 'longitude': None}]}, {'nome': 'São Paulo', 'uf': 'SP', 'vencedores': '1', 'latitude': '-23.5557714', 'longitude': '-46.6395571', 'cidades': [{'cidade': '', 'vencedores': '1', 'latitude': None, 'longitude': None}]}]",False,,,2600,,
lotofacil,Lotofácil,2598,13/08/2022,"ESPAÇODASORTE em SÃOPAULO,SP","['01', '03', '06', '09', '10', '11', '12', '13', '14', '17', '18', '19', '20', '23', '25']","[{'acertos': '15 Pontos', 'vencedores': 0, 'premio': '-'}, {'acertos': '14 Pontos', 'vencedores': 199, 'premio': '1.404,92'}, {'acertos': '13 Pontos', 'vencedores': 8695, 'premio': '25,00'}, {'acertos': '12 Pontos', 'vencedores': 113668, 'premio': '10,00'}, {'acertos': '11 Pontos', 'vencedores': 641699, 'premio': '5,00'}]",[],True,,,2599,,
lotofacil,Lotofácil,2597,12/08/2022,"ESPAÇODASORTE em SÃOPAULO,SP","['04', '07', '08', '09', '11', '12', '13', '14', '15', '16', '17', '19', '21', '23', '25']","[{'acertos': '15 Pontos', 'vencedores': 2, 'premio': '1.935.877,36'}, {'acertos': '14 Pontos', 'vencedores': 453, 'premio': '1.573,65'}, {'acertos': '13 Pontos', 'vencedores': 16565, 'premio': '25,00'}, {'acertos': '12 Pontos', 'vencedores': 206047, 'premio': '10,00'}, {'acertos': '11 Pontos', 'vencedores': 1123406, 'premio': '5,00'}]","[{'nome': 'Espírito Santo', 'uf': 'ES', 'vencedores': '1', 'latitude': '-19.1834229', 'longitude': '-40.3088626', 'cidades': [{'cidade': 'Vitória', 'vencedores': '1', 'latitude': '-20.2976178', 'longitude': '-40.2957768'}]}]",False,,,2598,,
lotofacil,Lotofácil,2596,11/08/2022,"ESPAÇODASORTE em SÃOPAULO,SP","['02', '05', '06', '09', '11', '12', '13', '14', '15', '16', '17', '19', '20', '24', '25']","[{'acertos': '15 Pontos', 'vencedores': 0, 'premio': '-'}, {'acertos': '14 Pontos', 'vencedores': 160, 'premio': '1.955,09'}, {'acertos': '13 Pontos', 'vencedores': 7185, 'premio': '25,00'}, {'acertos': '12 Pontos', 'vencedores': 99521, 'premio': '10,00'}, {'acertos': '11 Pontos', 'vencedores': 594528, 'premio': '5,00'}]",[],True,,,2597,,
lotofacil,Lotofácil,2595,10/08/2022,"ESPAÇODASORTE em SÃOPAULO,SP","['02', '03', '04', '06', '09', '10', '12', '14', '16', '17', '18', '20', '22', '24', '25']","[{'acertos': '15 Pontos', 'vencedores': 4, 'premio': '344.251,11'}, {'acertos': '14 Pontos', 'vencedores': 722, 'premio': '571,28'}, {'acertos': '13 Pontos', 'vencedores': 17001, 'premio': '25,00'}, {'acertos': '12 Pontos', 'vencedores': 147968, 'premio': '10,00'}, {'acertos': '11 Pontos', 'vencedores': 662816, 'premio': '5,00'}]","[{'nome': 'Minas Gerais', 'uf': 'MG', 'vencedores': '1', 'latitude': '-18.512178', 'longitude': '-44.5550308', 'cidades': [{'cidade': '', 'vencedores': '1', 'latitude': None, 'longitude': None}]}, {'nome': 'Santa Catarina', 'uf': 'SC', 'vencedores': '1', 'latitude': '-27.336122', 'longitude': '-50.071794', 'cidades': [{'cidade': '', 'vencedores': '1', 'latitude': None, 'longitude': None}]}, {'nome': 'São Paulo', 'uf': 'SP', 'vencedores': '1', 'latitude': '-23.5557714', 'longitude': '-46.6395571', 'cidades': [{'cidade': 'Ubatuba', 'vencedores': '1', 'latitude': '-23.4337995', 'longitude': '-45.0859653'}]}]",False,,,2596,,
lotofacil,Lotofácil,2594,09/08/2022,"ESPAÇODASORTE em SÃOPAULO,SP","['04', '05', '09', '11', '12', '14', '15', '16', '18', '20', '21', '22', '23', '24', '25']","[{'acertos': '15 Pontos', 'vencedores': 2, 'premio': '672.231,03'}, {'acertos': '14 Pontos', 'vencedores': 243, 'premio': '1.657,28'}, {'acertos': '13 Pontos', 'vencedores': 9177, 'premio': '25,00'}, {'acertos': '12 Pontos', 'vencedores': 129868, 'premio': '10,00'}, {'acertos': '11 Pontos', 'vencedores': 657034, 'premio': '5,00'}]","[{'nome': 'Pará', 'uf': 'PA', 'vencedores': '1', 'latitude': '-1.9981271', 'longitude': '-54.9306152', 'cidades': [{'cidade': '', 'vencedores': '1', 'latitude': None, 'longitude': None}]}, {'nome': 'São Paulo', 'uf': 'SP', 'vencedores': '1', 'latitude': '-23.5557714', 'longitude': '-46.6395571', 'cidades': [{'cidade': '', 'vencedores': '1', 'latitude': None, 'longitude': None}]}]",False,,,2595,,
lotofacil,Lotofácil,2593,08/08/2022,"ESPAÇODASORTE em SÃOPAULO,SP","['01', '05', '06', '08', '09', '10', '12', '13', '15', '17', '20', '21', '22', '23', '24']","[{'acertos': '15 Pontos', 'vencedores': 4, 'premio': '1.875.174,24'}, {'acertos': '14 Pontos', 'vencedores': 666, 'premio': '1.608,47'}, {'acertos': '13 Pontos', 'vencedores': 21860, 'premio': '25,00'}, {'acertos': '12 Pontos', 'vencedores': 276539, 'premio': '10,00'}, {'acertos': '11 Pontos', 'vencedores': 1512686, 'premio': '5,00'}]","[{'nome': 'Goiás', 'uf': 'GO', 'vencedores': '1', 'latitude': '36.7156122', 'longitude': '-95.9435511', 'cidades': [{'cidade': 'Goiânia', 'vencedores': '1', 'latitude': '-16.6868982', 'longitude': '-49.2648114'}]}, {'nome': 'Mato Grosso do Sul', 'uf': 'MS', 'vencedores': '1', 'latitude': '37.09024', 'longitude': '-95.712891', 'cidades': [{'cidade': '', 'vencedores': '1', 'latitude': None, 'longitude': None}]}, {'nome': 'Paraná', 'uf': 'PR', 'vencedores': '1', 'latitude': '-25.2520888', 'longitude': '-52.0215415', 'cidades': [{'cidade': '', 'vencedores': '1', 'latitude': None, 'longitude': None}]}, {'nome': 'Rio de Janeiro', 'uf': 'RJ', 'vencedores': '1', 'latitude': '34.948626', 'longitude': '@@GTo08', 'cidades': [{'cidade': 'Niterói', 'vencedores': '1', 'latitude': '-22.8859267', 'longitude': '-43.1152587'}]}]",False,,,2594,,
lotofacil,Lotofácil,2592,06/08/2022,"ESPAÇODASORTE em SÃOPAULO,SP","['01', '02', '04', '05', '06', '07', '10', '14', '15', '18', '19', '21', '22', '23', '25']","[{'acertos': '15 Pontos', 'vencedores': 0, 'premio': '-'}, {'acertos': '14 Pontos', 'vencedores': 342, 'premio': '1.501,82'}, {'acertos': '13 Pontos', 'vencedores': 11637, 'premio': '25,00'}, {'acertos': '12 Pontos', 'vencedores': 160515, 'premio': '10,00'}, {'acertos': '11 Pontos', 'vencedores': 915371, 'premio': '5,00'}]",[],True,,,2593,,
lotofacil,Lotofácil,2591,05/08/2022,"ESPAÇODASORTE em SÃOPAULO,SP","['01', '02', '03', '04', '05', '07', '09', '11', '12', '14', '17', '20', '21', '23', '24']","[{'acertos': '15 Pontos', 'vencedores': 0, 'premio': '-'}, {'acertos': '14 Pontos', 'vencedores': 438, 'premio': '1.008,58'}, {'acertos': '13 Pontos', 'vencedores': 13055, 'premio': '25,00'}, {'acertos': '12 Pontos', 'vencedores': 145311, 'premio': '10,00'}, {'acertos': '11 Pontos', 'vencedores': 746830, 'premio': '5,00'}]",[],True,,,2592,,
lotofacil,Lotofácil,2590,04/08/2022,"ESPAÇODASORTE em SÃOPAULO,SP","['01', '03', '04', '05', '07', '09', '10', '13', '15', '16', '18', '20', '21', '24', '25']","[{'acertos': '15 Pontos', 'vencedores': 12, 'premio': '352.149,65'}, {'acertos': '14 Pontos', 'vencedores': 1235, 'premio': '407,89'}, {'acertos': '13 Pontos', 'vencedores': 30753, 'premio': '25,00'}, {'acertos': '12 Pontos', 'vencedores': 283142, 'premio': '10,00'}, {'acertos': '11 Pontos', 'vencedores': 1286124, 'premio': '5,00'}]","[{'nome': 'Espírito Santo', 'uf': 'ES', 'vencedores': '1', 'latitude': '-19.1834229', 'longitude': '-40.3088626', 'cidades': [{'cidade': 'Serra', 'vencedores': '1', 'latitude': '-20.1228954', 'longitude': '-40.3054099'}]}, {'nome': 'Minas Gerais', 'uf': 'MG', 'vencedores': '1', 'latitude': '-18.512178', 'longitude': '-44.5550308', 'cidades': [{'cidade': 'Araguari', 'vencedores': '1', 'latitude': '-18.6459014', 'longitude': '-48.1979841'}]}, {'nome': 'Minas Gerais', 'uf': 'MG', 'vencedores': '1', 'latitude': '-18.512178', 'longitude': '-44.5550308', 'cidades': [{'cidade': 'Betim', 'vencedores': '1', 'latitude': '-19.9673078', 'longitude': '-44.2011904'}]}, {'nome': 'Minas Gerais', 'uf': 'MG', 'vencedores': '1', 'latitude': '-18.512178', 'longitude': '-44.5550308', 'cidades': [{'cidade': 'Montes Claros', 'vencedores': '1', 'latitude': '-16.7286406', 'longitude': '-43.8582139'}]}, {'nome': 'Piauí', 'uf': 'PI', 'vencedores': '1', 'latitude': '38.65501260000001', 'longitude': '-90.2977494', 'cidades': [{'cidade': 'Teresina', 'vencedores': '1', 'latitude': '-5.0920108', 'longitude': '-42.80375970000001'}]}, {'nome': 'Rio de Janeiro', 'uf': 'RJ', 'vencedores': '1', 'latitude': '34.948626', 'longitude': '@@GTo08', 'cidades': [{'cidade': '', 'vencedores': '1', 'latitude': None, 'longitude': None}]}, {'nome': 'São Paulo', 'uf': 'SP', 'vencedores': '2', 'latitude': '-23.5557714', 'longitude': '-46.6395571', 'cidades': [{'cidade': 'Coroados', 'vencedores': '1', 'latitude': '-21.3564903', 'longitude': '-50.2860144'}, {'cidade': 'Ourinhos', 'vencedores': '1', 'latitude': '-22.9798796', 'longitude': '-49.86993770000001'}]}, {'nome': 'São Paulo', 'uf': 'SP', 'vencedores': '2', 'latitude': '-23.5557714', 'longitude': '-46.6395571', 'cidades': [{'cidade': 'Pindamonhangaba', 'vencedores': '1', 'latitude': '-22.9283955', 'longitude': '-45.4596019'}, {'cidade': 'Santa Gertrudes', 'vencedores': '1', 'latitude': None, 'longitude': None}]}, {'nome': 'São Paulo', 'uf': 'SP', 'vencedores': '2', 'latitude': '-23.5557714', 'longitude': '-46.6395571', 'cidades': [{'cidade': 'São Paulo', 'vencedores': '2', 'latitude': '-23.5505199', 'longitude': '-46.63330939999999'}]}]",False,,,2591,,
lotofacil,Lotofácil,2589,03/08/2022,"ESPAÇODASORTE em SÃOPAULO,SP","['01', '02', '04', '05', '07', '08', '09', '10', '14', '15', '18', '21', '22', '24', '25']","[{'acertos': '15 Pontos', 'vencedores': 3, 'premio': '485.117,15'}, {'acertos': '14 Pontos', 'vencedores': 260, 'premio': '1.676,67'}, {'acertos': '13 Pontos', 'vencedores': 9921, 'premio': '25,00'}, {'acertos': '12 Pontos', 'vencedores': 134191, 'premio': '10,00'}, {'acertos': '11 Pontos', 'vencedores': 680509, 'premio': '5,00'}]","[{'nome': 'Rio de Janeiro', 'uf': 'RJ', 'vencedores': '1', 'latitude': '34.948626', 'longitude': '@@GTo08', 'cidades': [{'cidade': '', 'vencedores': '1', 'latitude': None, 'longitude': None}]}, {'nome': 'Rio de Janeiro', 'uf': 'RJ', 'vencedores': '1', 'latitude': '34.948626', 'longitude': '@@GTo08', 'cidades': [{'cidade': 'São Gonçalo', 'vencedores': '1', 'latitude': '-22.8272883', 'longitude': '-43.0637646'}]}, {'nome': 'São Paulo', 'uf': 'SP', 'vencedores': '1', 'latitude': '-23.5557714', 'longitude': '-46.6395571', 'cidades': [{'cidade': 'Mongaguá', 'vencedores': '1', 'latitude': '-24.1133436', 'longitude': '-46.6639723'}]}]",False,,,2590,,
lotofacil,Lotofácil,2588,02/08/2022,"ESPAÇODASORTE em SÃOPAULO,SP","['03', '04', '05', '08', '09', '10', '14', '15', '17', '18', '21', '22', '23', '24', '25']","[{'acertos': '15 Pontos', 'vencedores': 5, 'premio': '820.395,42'}, {'acertos': '14 Pontos', 'vencedores': 577, 'premio': '1.232,96'}, {'acertos': '13 Pontos', 'vencedores': 17382, 'premio': '25,00'}, {'acertos': '12 Pontos', 'vencedores': 206479, 'premio': '10,00'}, {'acertos': '11 Pontos', 'vencedores': 1116184, 'premio': '5,00'}]","[{'nome': 'Bahia', 'uf': 'BA', 'vencedores': '1', 'latitude': '-12.579738', 'longitude': '-41.7007272', 'cidades': [{'cidade': 'Itabuna', 'vencedores': '1', 'latitude': '-14.7916229', 'longitude': '-39.2833243'}]}, {'nome': 'Minas Gerais', 'uf': 'MG', 'vencedores': '1', 'latitude': '-18.512178', 'longitude': '-44.5550308', 'cidades': [{'cidade': 'Ituiutaba', 'vencedores': '1', 'latitude': None, 'longitude': None}]}, {'nome': 'São Paulo', 'uf': 'SP', 'vencedores': '1', 'latitude': '-23.5557714', 'longitude': '-46.6395571', 'cidades': [{'cidade': 'Clementina', 'vencedores': '1', 'latitude': None, 'longitude': None}]}]",False,,,2589,,
lotofacil,Lotofácil,2587,01/08/2022,"ESPAÇODASORTE em SÃOPAULO,SP","['03', '04', '06', '07', '08', '09', '11', '13', '15', '16', '19', '20', '21', '22', '24']","[{'acertos': '15 Pontos', 'vencedores': 0, 'premio': '-'}, {'acertos': '14 Pontos', 'vencedores': 259, 'premio': '1.398,06'}, {'acertos': '13 Pontos', 'vencedores': 9494, 'premio': '25,00'}, {'acertos': '12 Pontos', 'vencedores': 111820, 'premio': '10,00'}, {'acertos': '11 Pontos', 'vencedores': 619782, 'premio': '5,00'}]",[],True,,,2588,,
lotofacil,Lotofácil,2586,30/07/2022,"ESPAÇODASORTE em SÃOPAULO,SP","['01', '02', '07', '08', '12', '13', '15', '16', '18', '19', '20', '21', '22', '23', '24']","[{'acertos': '15 Pontos', 'vencedores': 1, 'premio': '1.492.333,21'}, {'acertos': '14 Pontos', 'vencedores': 222, 'premio': '1.409,50'}, {'acertos': '13 Pontos', 'vencedores': 8754, 'premio': '25,00'}, {'acertos': '12 Pontos', 'vencedores': 107272, 'premio': '10,00'}, {'acertos': '11 Pontos', 'vencedores': 620884, 'premio': '5,00'}]",[],False,,,2587,,
lotofacil,Lotofácil,2585,29/07/2022,"ESPAÇODASORTE em SÃOPAULO,SP","['03', '04', '06', '07', '08', '10', '12', '17', '18', '20', '21', '22', '23', '24', '25']","[{'acertos': '15 Pontos', 'vencedores': 2, 'premio': '766.848,72'}, {'acertos': '14 Pontos', 'vencedores': 269, 'premio': '1.707,81'}, {'acertos': '13 Pontos', 'vencedores': 9637, 'premio': '25,00'}, {'acertos': '12 Pontos', 'vencedores': 128398, 'premio': '10,00'}, {'acertos': '11 Pontos', 'vencedores': 686958, 'premio': '5,00'}]","[{'nome': 'Paraná', 'uf': 'PR', 'vencedores': '1', 'latitude': '-25.2520888', 'longitude': '-52.0215415', 'cidades': [{'cidade': 'Umuarama', 'vencedores': '1', 'latitude': '-23.7661064', 'longitude': '-53.3206105'}]}, {'nome': 'Rio de Janeiro', 'uf': 'RJ', 'vencedores': '1', 'latitude': '34.948626', 'longitude': '@@GTo08', 'cidades': [{'cidade': '', 'vencedores': '1', 'latitude': None, 'longitude': None}]}]",False,,,2586,,
lotofacil,Lotofácil,2584,28/07/2022,"ESPAÇODASORTE em SÃOPAULO,SP","['03', '04', '05', '07', '08', '10', '11', '12', '13', '14', '15', '16', '22', '23', '24']","[{'acertos': '15 Pontos', 'vencedores': 2, 'premio': '635.092,99'}, {'acertos': '14 Pontos', 'vencedores': 203, 'premio': '1.874,23'}, {'acertos': '13 Pontos', 'vencedores': 7919, 'premio': '25,00'}, {'acertos': '12 Pontos', 'vencedores': 101936, 'premio': '10,00'}, {'acertos': '11 Pontos', 'vencedores': 598234, 'premio': '5,00'}]","[{'nome': 'Goiás', 'uf': 'GO', 'vencedores': '1', 'latitude': '36.7156122', 'longitude': '-95.9435511', 'cidades': [{'cidade': '', 'vencedores': '1', 'latitude': None, 'longitude': None}]}, {'nome': 'São Paulo', 'uf': 'SP', 'vencedores': '1', 'latitude': '-23.5557714', 'longitude': '-46.6395571', 'cidades': [{'cidade': 'Atibaia', 'vencedores': '1', 'latitude': '-23.1175492', 'longitude': '-46.5567066'}]}]",False,,,2585,,
lotofacil,Lotofácil,2583,27/07/2022,"ESPAÇODASORTE em SÃOPAULO,SP","['01', '02', '05', '07', '08', '10', '11', '13', '14', '15', '16', '18', '19', '23', '24']","[{'acertos': '15 Pontos', 'vencedores': 2, 'premio': '686.328,19'}, {'acertos': '14 Pontos', 'vencedores': 345, 'premio': '1.191,78'}, {'acertos': '13 Pontos', 'vencedores': 10915, 'premio': '25,00'}, {'acertos': '12 Pontos', 'vencedores': 125323, 'premio': '10,00'}, {'acertos': '11 Pontos', 'vencedores': 648323, 'premio': '5,00'}]","[{'nome': 'Minas Gerais', 'uf': 'MG', 'vencedores': '1', 'latitude': '-18.512178', 'longitude': '-44.5550308', 'cidades': [{'cidade': '', 'vencedores': '1', 'latitude': None, 'longitude': None}]}, {'nome': 'São Paulo', 'uf': 'SP', 'vencedores': '1', 'latitude': '-23.5557714', 'longitude': '-46.6395571', 'cidades': [{'cidade': 'Taubaté', 'vencedores': '1', 'latitude': '-23.0225753', 'longitude': '-45.5486715'}]}]",False,,,2584,,
lotofacil,Lotofácil,2582,26/07/2022,"ESPAÇODASORTE em SÃOPAULO,SP","['01', '03', '04', '05', '08', '10', '11', '12', '13', '15', '16', '18', '19', '21', '24']","[{'acertos': '15 Pontos', 'vencedores': 1, 'premio': '1.197.451,22'}, {'acertos': '14 Pontos', 'vencedores': 290, 'premio': '1.236,83'}, {'acertos': '13 Pontos', 'vencedores': 9758, 'premio': '25,00'}, {'acertos': '12 Pontos', 'vencedores': 110104, 'premio': '10,00'}, {'acertos': '11 Pontos', 'vencedores': 586597, 'premio': '5,00'}]","[{'nome': 'São Paulo', 'uf': 'SP', 'vencedores': '1', 'latitude': '-23.5557714', 'longitude': '-46.6395571', 'cidades': [{'cidade': 'Jundiaí', 'vencedores': '1', 'latitude': '-23.1857076', 'longitude': '-46.8978057'}]}]",False,,,2583,,
lotofacil,Lotofácil,2581,25/07/2022,"ESPAÇODASORTE em SÃOPAULO,SP","['01', '02', '03', '04', '07', '08', '11', '12', '15', '16', '17', '19', '20', '21', '22']","[{'acertos': '15 Pontos', 'vencedores': 1, 'premio': '1.667.566,08'}, {'acertos': '14 Pontos', 'vencedores': 274, 'premio': '1.822,99'}, {'acertos': '13 Pontos', 'vencedores': 7272, 'premio': '25,00'}, {'acertos': '12 Pontos', 'vencedores': 91918, 'premio': '10,00'}, {'acertos': '11 Pontos', 'vencedores': 551081, 'premio': '5,00'}]","[{'nome': 'Goiás', 'uf': 'GO', 'vencedores': '1', 'latitude': '36.7156122', 'longitude': '-95.9435511', 'cidades': [{'cidade': 'Anápolis', 'vencedores': '1', 'latitude': '-16.3286427', 'longitude': '-48.95343339999999'}]}]",False,,,2582,,
lotofacil,Lotofácil,2580,23/07/2022,"ESPAÇODASORTE em SÃOPAULO,SP","['01', '05', '07', '08', '10', '11', '12', '13', '14', '15', '16', '18', '20', '22', '25']","[{'acertos': '15 Pontos', 'vencedores': 3, 'premio': '1.360.733,57'}, {'acertos': '14 Pontos', 'vencedores': 582, 'premio': '921,39'}, {'acertos': '13 Pontos', 'vencedores': 22053, 'premio': '25,00'}, {'acertos': '12 Pontos', 'vencedores': 218023, 'premio': '10,00'}, {'acertos': '11 Pontos', 'vencedores': 1077723, 'premio': '5,00'}]","[{'nome': 'São Paulo', 'uf': 'SP', 'vencedores': '1', 'latitude': '-23.5557714', 'longitude': '-46.6395571', 'cidades': [{'cidade': 'Osasco', 'vencedores': '1', 'latitude': '-23.5372048', 'longitude': '-46.7962319'}]}, {'nome': 'São Paulo', 'uf': 'SP', 'vencedores': '1', 'latitude': '-23.5557714', 'longitude': '-46.6395571', 'cidades': [{'cidade': 'São Paulo', 'vencedores': '1', 'latitude': '-23.5505199', 'longitude': '-46.63330939999999'}]}]",False,,,2581,,
lotofacil,Lotofácil,2579,22/07/2022,"ESPAÇODASORTE em SÃOPAULO,SP","['01', '03', '04', '07', '08', '10', '12', '15', '16', '17', '18', '19', '22', '23', '25']","[{'acertos': '15 Pontos', 'vencedores': 4, 'premio': '371.783,14'}, {'acertos': '14 Pontos', 'vencedores': 502, 'premio': '887,35'}, {'acertos': '13 Pontos', 'vencedores': 12145, 'premio': '25,00'}, {'acertos': '12 Pontos', 'vencedores': 116830, 'premio': '10,00'}, {'acertos': '11 Pontos', 'vencedores': 604653, 'premio': '5,00'}]","[{'nome': 'Bahia', 'uf': 'BA', 'vencedores': '1', 'latitude': '-12.579738', 'longitude': '-41.7007272', 'cidades': [{'cidade': 'Brejões', 'vencedores': '1', 'latitude': None, 'longitude': None}]}, {'nome': 'Minas Gerais', 'uf': 'MG', 'vencedores': '1', 'latitude': '-18.512178', 'longitude': '-44.5550308', 'cidades': [{'cidade': '', 'vencedores': '1', 'latitude': None, 'longitude': None}]}, {'nome': 'Pará', 'uf': 'PA', 'vencedores': '1', 'latitude': '-1.9981271', 'longitude': '-54.9306152', 'cidades': [{'cidade': 'Oriximiná', 'vencedores': '1', 'latitude': '-1.7618311', 'longitude': '-55.86381549999999'}]}, {'nome': 'São Paulo', 'uf': 'SP', 'vencedores': '1', 'latitude': '-23.5557714', 'longitude': '-46.6395571', 'cidades': [{'cidade': 'Jundiaí', 'vencedores': '1', 'latitude': '-23.1857076', 'longitude': '-46.8978057'}]}]",False,,,2580,,
lotofacil,Lotofácil,2578,21/07/2022,"ESPAÇODASORTE em SÃOPAULO,SP","['01', '02', '03', '04', '07', '08', '09', '10', '12', '14', '15', '16', '20', '22', '25']","[{'acertos': '15 Pontos', 'vencedores': 2, 'premio': '668.991,85'}, {'acertos': '14 Pontos', 'vencedores': 203, 'premio': '1.381,99'}, {'acertos': '13 Pontos', 'vencedores': 7704, 'premio': '25,00'}, {'acertos': '12 Pontos', 'vencedores': 102448, 'premio': '10,00'}, {'acertos': '11 Pontos', 'vencedores': 569508, 'premio': '5,00'}]","[{'nome': 'Bahia', 'uf': 'BA', 'vencedores': '1', 'latitude': '-12.579738', 'longitude': '-41.7007272', 'cidades': [{'cidade': 'Camaçari', 'vencedores': '1', 'latitude': '-12.6971776', 'longitude': '-38.3331983'}]}, {'nome': 'São Paulo', 'uf': 'SP', 'vencedores': '1', 'latitude': '-23.5557714', 'longitude': '-46.6395571', 'cidades': [{'cidade': '', 'vencedores': '1', 'latitude': None, 'longitude': None}]}]",False,,,2579,,
lotofacil,Lotofácil,2577,20/07/2022,"ESPAÇODASORTE em SÃOPAULO,SP","['01', '04', '06', '07', '08', '09', '12', '13', '14', '18', '20', '21', '23', '24', '25']","[{'acertos': '15 Pontos', 'vencedores': 1, 'premio': '1.526.441,34'}, {'acertos': '14 Pontos', 'vencedores': 203, 'premio': '1.576,65'}, {'acertos': '13 Pontos', 'vencedores': 8571, 'premio': '25,00'}, {'acertos': '12 Pontos', 'vencedores': 112864, 'premio': '10,00'}, {'acertos': '11 Pontos', 'vencedores': 629655, 'premio': '5,00'}]","[{'nome': 'Santa Catarina', 'uf': 'SC', 'vencedores': '1', 'latitude': '-27.336122', 'longitude': '-50.071794', 'cidades': [{'cidade': 'Camboriú', 'vencedores': '1', 'latitude': None, 'longitude': None}]}]",False,,,2578,,
lotofacil,Lotofácil,2576,19/07/2022,"ESPAÇODASORTE em SÃOPAULO,SP","['01', '02', '05', '06', '07', '10', '13', '15', '16', '18', '19', '20', '21', '24', '25']","[{'acertos': '15 Pontos', 'vencedores': 1, 'premio': '1.203.435,90'}, {'acertos': '14 Pontos', 'vencedores': 321, 'premio': '1.122,97'}, {'acertos': '13 Pontos', 'vencedores': 9898, 'premio': '25,00'}, {'acertos': '12 Pontos', 'vencedores': 113996, 'premio': '10,00'}, {'acertos': '11 Pontos', 'vencedores': 613942, 'premio': '5,00'}]","[{'nome': 'Bahia', 'uf': 'BA', 'vencedores': '1', 'latitude': '-12.579738', 'longitude': '-41.7007272', 'cidades': [{'cidade': '', 'vencedores': '1', 'latitude': None, 'longitude': None}]}]",False,,,2577,,
lotofacil,Lotofácil,2575,18/07/2022,"ESPAÇODASORTE em SÃOPAULO,SP","['02', '03', '05', '06', '07', '08', '10', '11', '14', '15', '16', '17', '21', '23', '25']","[{'acertos': '15 Pontos', 'vencedores': 5, 'premio': '273.774,57'}, {'acertos': '14 Pontos', 'vencedores': 300, 'premio': '1.366,77'}, {'acertos': '13 Pontos', 'vencedores': 10602, 'premio': '25,00'}, {'acertos': '12 Pontos', 'vencedores': 124302, 'premio': '10,00'}, {'acertos': '11 Pontos', 'vencedores': 660007, 'premio': '5,00'}]","[{'nome': 'Minas Gerais', 'uf': 'MG', 'vencedores': '1', 'latitude': '-18.512178', 'longitude': '-44.5550308', 'cidades': [{'cidade': 'Betim', 'vencedores': '1', 'latitude': '-19.9673078', 'longitude': '-44.2011904'}]}, {'nome': 'Rio Grande do Sul', 'uf': 'RS', 'vencedores': '1', 'latitude': '-30.0346316', 'longitude': '-51.2176986', 'cidades': [{'cidade': 'Giruá', 'vencedores': '1', 'latitude': '-28.0298779', 'longitude': '-54.3544109'}]}, {'nome': 'Santa Catarina', 'uf': 'SC', 'vencedores': '1', 'latitude': '-27.336122', 'longitude': '-50.071794', 'cidades': [{'cidade': 'Lages', 'vencedores': '1', 'latitude': '-27.8154928', 'longitude': '-50.3263991'}]}, {'nome': 'São Paulo', 'uf': 'SP', 'vencedores': '1', 'latitude': '-23.5557714', 'longitude': '-46.6395571', 'cidades': [{'cidade': 'Itápolis', 'vencedores': '1', 'latitude': None, 'longitude': None}]}, {'nome': 'Tocantins', 'uf': 'TO', 'vencedores': '1', 'latitude': '-10.17528', 'longitude': '-48.2982474', 'cidades': [{'cidade': 'Tupirama', 'vencedores': '1', 'latitude': None, 'longitude': None}]}]",False,,,2576,,
lotofacil,Lotofácil,2574,16/07/2022,"ESPAÇODASORTE em SÃOPAULO,SP","['01', '02', '03', '07', '09', '10', '11', '12', '14', '16', '17', '19', '20', '21', '25']","[{'acertos': '15 Pontos', 'vencedores': 1, 'premio': '1.239.162,95'}, {'acertos': '14 Pontos', 'vencedores': 262, 'premio': '1.416,70'}, {'acertos': '13 Pontos', 'vencedores': 9651, 'premio': '25,00'}, {'acertos': '12 Pontos', 'vencedores': 113665, 'premio': '10,00'}, {'acertos': '11 Pontos', 'vencedores': 586094, 'premio': '5,00'}]",[],False,,,2575,,
lotofacil,Lotofácil,2573,15/07/2022,"ESPAÇODASORTE em SÃOPAULO,SP","['02', '06', '09', '10', '11', '12', '13', '15', '16', '17', '18', '19', '20', '22', '23']","[{'acertos': '15 Pontos', 'vencedores': 1, 'premio': '1.628.200,87'}, {'acertos': '14 Pontos', 'vencedores': 165, 'premio': '2.069,07'}, {'acertos': '13 Pontos', 'vencedores': 7845, 'premio': '25,00'}, {'acertos': '12 Pontos', 'vencedores': 110376, 'premio': '10,00'}, {'acertos': '11 Pontos', 'vencedores': 631055, 'premio': '5,00'}]","[{'nome': 'Pará', 'uf': 'PA', 'vencedores': '1', 'latitude': '-1.9981271', 'longitude': '-54.9306152', 'cidades': [{'cidade': 'Redenção', 'vencedores': '1', 'latitude': '-8.0257338', 'longitude': '-50.0322512'}]}]",False,,,2574,,
lotofacil,Lotofácil,2572,14/07/2022,"ESPAÇODASORTE em SÃOPAULO,SP","['01', '03', '05', '07', '08', '09', '11', '12', '13', '14', '15', '16', '21', '23', '24']","[{'acertos': '15 Pontos', 'vencedores': 1, 'premio': '1.239.930,54'}, {'acertos': '14 Pontos', 'vencedores': 182, 'premio': '1.428,49'}, {'acertos': '13 Pontos', 'vencedores': 7662, 'premio': '25,00'}, {'acertos': '12 Pontos', 'vencedores': 104378, 'premio': '10,00'}, {'acertos': '11 Pontos', 'vencedores': 607695, 'premio': '5,00'}]","[{'nome': 'Paraná', 'uf': 'PR', 'vencedores': '1', 'latitude': '-25.2520888', 'longitude': '-52.0215415', 'cidades': [{'cidade': 'Piraquara', 'vencedores': '1', 'latitude': None, 'longitude': None}]}]",False,,,2573,,
lotofacil,Lotofácil,2571,13/07/2022,"ESPAÇODASORTE em SÃOPAULO,SP","['02', '04', '05', '07', '10', '14', '15', '16', '17', '19', '20', '21', '23', '24', '25']","[{'acertos': '15 Pontos', 'vencedores': 3, 'premio': '462.895,93'}, {'acertos': '14 Pontos', 'vencedores': 306, 'premio': '1.359,36'}, {'acertos': '13 Pontos', 'vencedores': 10364, 'premio': '25,00'}, {'acertos': '12 Pontos', 'vencedores': 126552, 'premio': '10,00'}, {'acertos': '11 Pontos', 'vencedores': 663595, 'premio': '5,00'}]","[{'nome': 'Rio de Janeiro', 'uf': 'RJ', 'vencedores': '1', 'latitude': '34.948626', 'longitude': '@@GTo08', 'cidades': [{'cidade': '', 'vencedores': '1', 'latitude': None, 'longitude': None}]}]",False,,,2572,,
lotofacil,Lotofácil,2570,12/07/2022,"ESPAÇODASORTE em SÃOPAULO,SP","['01', '03', '04', '05', '06', '07', '09', '10', '11', '13', '16', '18', '20', '23', '25']","[{'acertos': '15 Pontos', 'vencedores': 4, 'premio': '1.107.639,58'}, {'acertos': '14 Pontos', 'vencedores': 837, 'premio': '670,62'}, {'acertos': '13 Pontos', 'vencedores': 28789, 'premio': '25,00'}, {'acertos': '12 Pontos', 'vencedores': 271730, 'premio': '10,00'}, {'acertos': '11 Pontos', 'vencedores': 1185374, 'premio': '5,00'}]","[{'nome': 'Paraná', 'uf': 'PR', 'vencedores': '1', 'latitude': '-25.2520888', 'longitude': '-52.0215415', 'cidades': [{'cidade': '', 'vencedores': '1', 'latitude': None, 'longitude': None}]}, {'nome': 'Rio de Janeiro', 'uf': 'RJ', 'vencedores': '1', 'latitude': '34.948626', 'longitude': '@@GTo08', 'cidades': [{'cidade': '', 'vencedores': '1', 'latitude': None, 'longitude': None}]}, {'nome': 'Santa Catarina', 'uf': 'SC', 'vencedores': '1', 'latitude': '-27.336122', 'longitude': '-50.071794', 'cidades': [{'cidade': 'Ibirama', 'vencedores': '1', 'latitude': None, 'longitude': None}]}, {'nome': 'Tocantins', 'uf': 'TO', 'vencedores': '1', 'latitude': '-10.17528', 'longitude': '-48.2982474', 'cidades': [{'cidade': '', 'vencedores': '1', 'latitude': None, 'longitude': None}]}]",False,,,2571,,
lotofacil,Lotofácil,2569,11/07/2022,"ESPAÇODASORTE em SÃOPAULO,SP","['03', '05', '12', '13', '14', '15', '16', '17', '18', '19', '20', '21', '22', '23', '25']","[{'acertos': '15 Pontos', 'vencedores': 1, 'premio': '1.517.057,92'}, {'acertos': '14 Pontos', 'vencedores': 319, 'premio': '1.424,50'}, {'acertos': '13 Pontos', 'vencedores': 21167, 'premio': '25,00'}, {'acertos': '12 Pontos', 'vencedores': 108388, 'premio': '10,00'}, {'acertos': '11 Pontos', 'vencedores': 645440, 'premio': '5,00'}]","[{'nome': 'Bahia', 'uf': 'BA', 'vencedores': '1', 'latitude': '-12.579738', 'longitude': '-41.7007272', 'cidades': [{'cidade': 'Salvador', 'vencedores': '1', 'latitude': '-12.977749', 'longitude': '-38.5016301'}]}]",False,,,2570,,
lotofacil,Lotofácil,2568,09/07/2022,"ESPAÇODASORTE em SÃOPAULO,SP","['01', '02', '04', '06', '08', '09', '11', '12', '14', '15', '17', '20', '21', '22', '24']","[{'acertos': '15 Pontos', 'vencedores': 3, 'premio': '1.244.037,81'}, {'acertos': '14 Pontos', 'vencedores': 502, 'premio': '1.188,51'}, {'acertos': '13 Pontos', 'vencedores': 14016, 'premio': '25,00'}, {'acertos': '12 Pontos', 'vencedores': 150566, 'premio': '10,00'}, {'acertos': '11 Pontos', 'vencedores': 766576, 'premio': '5,00'}]","[{'nome': 'Bahia', 'uf': 'BA', 'vencedores': '1', 'latitude': '-12.579738', 'longitude': '-41.7007272', 'cidades': [{'cidade': 'Salvador', 'vencedores': '1', 'latitude': '-12.977749', 'longitude': '-38.5016301'}]}, {'nome': 'Paraná', 'uf': 'PR', 'vencedores': '1', 'latitude': '-25.2520888', 'longitude': '-52.0215415', 'cidades': [{'cidade': 'Araucária', 'vencedores': '1', 'latitude': '-25.586431', 'longitude': '-49.4052251'}]}]",False,,,2569,,
lotofacil,Lotofácil,2567,08/07/2022,"ESPAÇODASORTE em SÃOPAULO,SP","['01', '02', '03', '04', '05', '07', '11', '12', '13', '14', '15', '19', '20', '21', '24']","[{'acertos': '15 Pontos', 'vencedores': 0, 'premio': '-'}, {'acertos': '14 Pontos', 'vencedores': 267, 'premio': '1.366,65'}, {'acertos': '13 Pontos', 'vencedores': 8684, 'premio': '25,00'}, {'acertos': '12 Pontos', 'vencedores': 123837, 'premio': '10,00'}, {'acertos': '11 Pontos', 'vencedores': 718204, 'premio': '5,00'}]",[],True,,,2568,,
lotofacil,Lotofácil,2566,07/07/2022,"ESPAÇODASORTE em SÃOPAULO,SP","['01', '02', '10', '11', '12', '13', '14', '15', '16', '18', '19', '20', '21', '23', '24']","[{'acertos': '15 Pontos', 'vencedores': 1, 'premio': '1.662.789,58'}, {'acertos': '14 Pontos', 'vencedores': 217, 'premio': '1.606,68'}, {'acertos': '13 Pontos', 'vencedores': 6980, 'premio': '25,00'}, {'acertos': '12 Pontos', 'vencedores': 102672, 'premio': '10,00'}, {'acertos': '11 Pontos', 'vencedores': 569949, 'premio': '5,00'}]","[{'nome': 'Goiás', 'uf': 'GO', 'vencedores': '1', 'latitude': '36.7156122', 'longitude': '-95.9435511', 'cidades': [{'cidade': 'Goiânia', 'vencedores': '1', 'latitude': '-16.6868982', 'longitude': '-49.2648114'}]}]",False,,,2567,,
lotofacil,Lotofácil,2565,06/07/2022,"ESPAÇODASORTE em SÃOPAULO,SP","['01', '02', '05', '07', '09', '10', '11', '12', '14', '15', '16', '18', '20', '22', '25']","[{'acertos': '15 Pontos', 'vencedores': 8, 'premio': '142.620,78'}, {'acertos': '14 Pontos', 'vencedores': 734, 'premio': '465,61'}, {'acertos': '13 Pontos', 'vencedores': 19232, 'premio': '25,00'}, {'acertos': '12 Pontos', 'vencedores': 164926, 'premio': '10,00'}, {'acertos': '11 Pontos', 'vencedores': 748895, 'premio': '5,00'}]","[{'nome': 'Amazonas', 'uf': 'AM', 'vencedores': '1', 'latitude': '-3.4168427', 'longitude': '-65.8560646', 'cidades': [{'cidade': 'Manaus', 'vencedores': '1', 'latitude': '-3.1190275', 'longitude': '-60.0217314'}]}, {'nome': 'Minas Gerais', 'uf': 'MG', 'vencedores': '1', 'latitude': '-18.512178', 'longitude': '-44.5550308', 'cidades': [{'cidade': '', 'vencedores': '1', 'latitude': None, 'longitude': None}]}, {'nome': 'Paraná', 'uf': 'PR', 'vencedores': '1', 'latitude': '-25.2520888', 'longitude': '-52.0215415', 'cidades': [{'cidade': 'Cianorte', 'vencedores': '1', 'latitude': '-23.6628906', 'longitude': '-52.611935'}]}, {'nome': 'Rio Grande do Sul', 'uf': 'RS', 'vencedores': '1', 'latitude': '-30.0346316', 'longitude': '-51.2176986', 'cidades': [{'cidade': '', 'vencedores': '1', 'latitude': None, 'longitude': None}]}, {'nome': 'Rio Grande do Sul', 'uf': 'RS', 'vencedores': '1', 'latitude': '-30.0346316', 'longitude': '-51.2176986', 'cidades': [{'cidade': 'Farroupilha', 'vencedores': '1', 'latitude': None, 'longitude': None}]}, {'nome': 'São Paulo', 'uf': 'SP', 'vencedores': '1', 'latitude': '-23.5557714', 'longitude': '-46.6395571', 'cidades': [{'cidade': 'Indaiatuba', 'vencedores': '1', 'latitude': '-23.0881603', 'longitude': '-47.2079235'}]}, {'nome': 'São Paulo', 'uf': 'SP', 'vencedores': '1', 'latitude': '-23.5557714', 'longitude': '-46.6395571', 'cidades': [{'cidade': 'Piracicaba', 'vencedores': '1', 'latitude': '-22.7626467', 'longitude': '-47.8427298'}]}]",False,,,2566,,
lotofacil,Lotofácil,2564,05/07/2022,"ESPAÇODASORTE em SÃOPAULO,SP","['02', '04', '06', '07', '08', '11', '15', '16', '17', '18', '21', '22', '23', '24', '25']","[{'acertos': '15 Pontos', 'vencedores': 1, 'premio': '1.556.317,42'}, {'acertos': '14 Pontos', 'vencedores': 201, 'premio': '1.623,51'}, {'acertos': '13 Pontos', 'vencedores': 9755, 'premio': '25,00'}, {'acertos': '12 Pontos', 'vencedores': 102792, 'premio': '10,00'}, {'acertos': '11 Pontos', 'vencedores': 570055, 'premio': '5,00'}]","[{'nome': 'Mato Grosso', 'uf': 'MT', 'vencedores': '1', 'latitude': '-12.6818712', 'longitude': '-56.921099', 'cidades': [{'cidade': '', 'vencedores': '1', 'latitude': None, 'longitude': None}]}]",False,,,2565,,
lotofacil,Lotofácil,2563,04/07/2022,"ESPAÇODASORTE em SÃOPAULO,SP","['03', '04', '06', '08', '09', '12', '15', '17', '18', '19', '21', '22', '23', '24', '25']","[{'acertos': '15 Pontos', 'vencedores': 1, 'premio': '1.468.926,11'}, {'acertos': '14 Pontos', 'vencedores': 278, 'premio': '1.582,73'}, {'acertos': '13 Pontos', 'vencedores': 10711, 'premio': '25,00'}, {'acertos': '12 Pontos', 'vencedores': 127388, 'premio': '10,00'}, {'acertos': '11 Pontos', 'vencedores': 665881, 'premio': '5,00'}]",[],False,,,2564,,
lotofacil,Lotofácil,2562,02/07/2022,"ESPAÇODASORTE em SÃOPAULO,SP","['02', '03', '06', '07', '09', '10', '11', '14', '16', '17', '20', '21', '22', '24', '25']","[{'acertos': '15 Pontos', 'vencedores': 2, 'premio': '700.068,90'}, {'acertos': '14 Pontos', 'vencedores': 249, 'premio': '1.684,32'}, {'acertos': '13 Pontos', 'vencedores': 8540, 'premio': '25,00'}, {'acertos': '12 Pontos', 'vencedores': 101543, 'premio': '10,00'}, {'acertos': '11 Pontos', 'vencedores': 548926, 'premio': '5,00'}]","[{'nome': 'Pará', 'uf': 'PA', 'vencedores': '1', 'latitude': '-1.9981271', 'longitude': '-54.9306152', 'cidades': [{'cidade': 'Santarém', 'vencedores': '1', 'latitude': '-2.4506291', 'longitude': '-54.7009228'}]}, {'nome': 'São Paulo', 'uf': 'SP', 'vencedores': '1', 'latitude': '-23.5557714', 'longitude': '-46.6395571', 'cidades': [{'cidade': 'Indaiatuba', 'vencedores': '1', 'latitude': '-23.0881603', 'longitude': '-47.2079235'}]}]",False,,,2563,,
lotofacil,Lotofácil,2561,01/07/2022,"ESPAÇODASORTE em SÃOPAULO,SP","['01', '02', '03', '05', '06', '07', '12', '13', '15', '16', '17', '18', '20', '21', '23']","[{'acertos': '15 Pontos', 'vencedores': 2, 'premio': '749.449,98'}, {'acertos': '14 Pontos', 'vencedores': 346, 'premio': '1.297,62'}, {'acertos': '13 Pontos', 'vencedores': 10052, 'premio': '25,00'}, {'acertos': '12 Pontos', 'vencedores': 127529, 'premio': '10,00'}, {'acertos': '11 Pontos', 'vencedores': 692360, 'premio': '5,00'}]","[{'nome': 'Rio de Janeiro', 'uf': 'RJ', 'vencedores': '1', 'latitude': '34.948626', 'longitude': '@@GTo08', 'cidades': [{'cidade': '', 'vencedores': '1', 'latitude': None, 'longitude': None}]}, {'nome': 'Santa Catarina', 'uf': 'SC', 'vencedores': '1', 'latitude': '-27.336122', 'longitude': '-50.071794', 'cidades': [{'cidade': 'Florianópolis', 'vencedores': '1', 'latitude': '-27.5948698', 'longitude': '-48.54821949999999'}]}]",False,,,2562,,
lotofacil,Lotofácil,2560,30/06/2022,"ESPAÇODASORTE em SÃOPAULO,SP","['01', '02', '04', '05', '06', '08', '09', '11', '14', '16', '18', '20', '23', '24', '25']","[{'acertos': '15 Pontos', 'vencedores': 5, 'premio': '852.722,39'}, {'acertos': '14 Pontos', 'vencedores': 759, 'premio': '778,53'}, {'acertos': '13 Pontos', 'vencedores': 21395, 'premio': '25,00'}, {'acertos': '12 Pontos', 'vencedores': 230606, 'premio': '10,00'}, {'acertos': '11 Pontos', 'vencedores': 1084605, 'premio': '5,00'}]","[{'nome': 'Goiás', 'uf': 'GO', 'vencedores': '1', 'latitude': '36.7156122', 'longitude': '-95.9435511', 'cidades': [{'cidade': 'Anápolis', 'vencedores': '1', 'latitude': '-16.3286427', 'longitude': '-48.95343339999999'}]}, {'nome': 'Minas Gerais', 'uf': 'MG', 'vencedores': '1', 'latitude': '-18.512178', 'longitude': '-44.5550308', 'cidades': [{'cidade': '', 'vencedores': '1', 'latitude': None, 'longitude': None}]}, {'nome': 'Pará', 'uf': 'PA', 'vencedores': '1', 'latitude': '-1.9981271', 'longitude': '-54.9306152', 'cidades': [{'cidade': '', 'vencedores': '1', 'latitude': None, 'longitude': None}]}, {'nome': 'Paraná', 'uf': 'PR', 'vencedores': '2', 'latitude': '-25.2520888', 'longitude': '-52.0215415', 'cidades': [{'cidade': '', 'vencedores': '2', 'latitude': None, 'longitude': None}]}]",False,,,2561,,
lotofacil,Lotofácil,2559,29/06/2022,"ESPAÇODASORTE em SÃOPAULO,SP","['01', '03', '05', '07', '08', '09', '10', '12', '13', '14', '16', '17', '19', '21', '25']","[{'acertos': '15 Pontos', 'vencedores': 2, 'premio': '556.506,66'}, {'acertos': '14 Pontos', 'vencedores': 743, 'premio': '448,70'}, {'acertos': '13 Pontos', 'vencedores': 12824, 'premio': '25,00'}, {'acertos': '12 Pontos', 'vencedores': 129767, 'premio': '10,00'}, {'acertos': '11 Pontos', 'vencedores': 626971, 'premio': '5,00'}]","[{'nome': 'Rio de Janeiro', 'uf': 'RJ', 'vencedores': '1', 'latitude': '34.948626', 'longitude': '@@GTo08', 'cidades': [{'cidade': 'Rio de Janeiro', 'vencedores': '1', 'latitude': '-22.9068467', 'longitude': '-43.1728965'}]}]",False,,,2560,,
lotofacil,Lotofácil,2558,28/06/2022,"ESPAÇODASORTE em SÃOPAULO,SP","['03', '04', '05', '06', '10', '12', '14', '15', '16', '17', '20', '21', '22', '24', '25']","[{'acertos': '15 Pontos', 'vencedores': 1, 'premio': '3.477.366,40'}, {'acertos': '14 Pontos', 'vencedores': 362, 'premio': '1.688,08'}, {'acertos': '13 Pontos', 'vencedores': 12956, 'premio': '25,00'}, {'acertos': '12 Pontos', 'vencedores': 163123, 'premio': '10,00'}, {'acertos': '11 Pontos', 'vencedores': 886498, 'premio': '5,00'}]",[],False,,,2559,,
lotofacil,Lotofácil,2557,27/06/2022,"ESPAÇODASORTE em SÃOPAULO,SP","['02', '03', '04', '05', '06', '07', '08', '09', '10', '11', '12', '17', '18', '21', '22']","[{'acertos': '15 Pontos', 'vencedores': 0, 'premio': '-'}, {'acertos': '14 Pontos', 'vencedores': 261, 'premio': '1.649,50'}, {'acertos': '13 Pontos', 'vencedores': 8230, 'premio': '25,00'}, {'acertos': '12 Pontos', 'vencedores': 101677, 'premio': '10,00'}, {'acertos': '11 Pontos', 'vencedores': 563673, 'premio': '5,00'}]",[],True,,,2558,,
lotofacil,Lotofácil,2556,25/06/2022,"ESPAÇODASORTE em SÃOPAULO,SP","['01', '02', '05', '10', '11', '12', '15', '17', '18', '20', '21', '22', '23', '24', '25']","[{'acertos': '15 Pontos', 'vencedores': 1, 'premio': '1.030.921,38'}, {'acertos': '14 Pontos', 'vencedores': 310, 'premio': '996,13'}, {'acertos': '13 Pontos', 'vencedores': 8970, 'premio': '25,00'}, {'acertos': '12 Pontos', 'vencedores': 108360, 'premio': '10,00'}, {'acertos': '11 Pontos', 'vencedores': 584814, 'premio': '5,00'}]",[],False,"R$ 1,5 Milhão",27/06/2022,2557,,
lotofacil,Lotofácil,2555,24/06/2022,"ESPAÇODASORTE em SÃOPAULO,SP","['02', '03', '04', '06', '07', '08', '11', '12', '16', '17', '18', '21', '22', '23', '25']","[{'acertos': '15 Pontos', 'vencedores': 5, 'premio': '291.349,27'}, {'acertos': '14 Pontos', 'vencedores': 328, 'premio': '1.330,34'}, {'acertos': '13 Pontos', 'vencedores': 10912, 'premio': '25,00'}, {'acertos': '12 Pontos', 'vencedores': 91392, 'premio': '10,00'}, {'acertos': '11 Pontos', 'vencedores': 488626, 'premio': '5,00'}]",[],False,"R$ 1,5 Milhão",25/06/2022,2556,,
lotofacil,Lotofácil,2554,23/06/2022,"ESPAÇODASORTE em SÃOPAULO,SP","['02', '03', '04', '08', '10', '11', '13', '15', '16', '17', '18', '19', '20', '22', '24']","[{'acertos': '15 Pontos', 'vencedores': 2, 'premio': '609.506,77'}, {'acertos': '14 Pontos', 'vencedores': 219, 'premio': '1.667,31'}, {'acertos': '13 Pontos', 'vencedores': 8743, 'premio': '25,00'}, {'acertos': '12 Pontos', 'vencedores': 105844, 'premio': '10,00'}, {'acertos': '11 Pontos', 'vencedores': 547174, 'premio': '5,00'}]",[],False,,,2555,,
lotofacil,Lotofácil,2553,22/06/2022,"ESPAÇODASORTE em SÃOPAULO,SP","['01', '02', '04', '05', '07', '08', '09', '11', '13', '14', '17', '18', '19', '21', '25']","[{'acertos': '15 Pontos', 'vencedores': 7, 'premio': '167.492,48'}, {'acertos': '14 Pontos', 'vencedores': 492, 'premio': '713,80'}, {'acertos': '13 Pontos', 'vencedores': 13713, 'premio': '25,00'}, {'acertos': '12 Pontos', 'vencedores': 142194, 'premio': '10,00'}, {'acertos': '11 Pontos', 'vencedores': 685117, 'premio': '5,00'}]","[{'nome': 'Amazonas', 'uf': 'AM', 'vencedores': '1', 'latitude': '-3.4168427', 'longitude': '-65.8560646', 'cidades': [{'cidade': 'Manaus', 'vencedores': '1', 'latitude': '-3.1190275', 'longitude': '-60.0217314'}]}, {'nome': 'Minas Gerais', 'uf': 'MG', 'vencedores': '1', 'latitude': '-18.512178', 'longitude': '-44.5550308', 'cidades': [{'cidade': '', 'vencedores': '1', 'latitude': None, 'longitude': None}]}, {'nome': 'Rio Grande do Sul', 'uf': 'RS', 'vencedores': '1', 'latitude': '-30.0346316', 'longitude': '-51.2176986', 'cidades': [{'cidade': '', 'vencedores': '1', 'latitude': None, 'longitude': None}]}, {'nome': 'São Paulo', 'uf': 'SP', 'vencedores': '3', 'latitude': '-23.5557714', 'longitude': '-46.6395571', 'cidades': [{'cidade': '', 'vencedores': '3', 'latitude': None, 'longitude': None}]}]",False,"R$ 1,5 Milhão",23/06/2022,2554,,
lotofacil,Lotofácil,2552,21/06/2022,"ESPAÇODASORTE em SÃOPAULO,SP","['01', '03', '04', '05', '09', '10', '12', '13', '14', '15', '17', '18', '21', '24', '25']","[{'acertos': '15 Pontos', 'vencedores': 1, 'premio': '1.177.958,10'}, {'acertos': '14 Pontos', 'vencedores': 247, 'premio': '1.428,52'}, {'acertos': '13 Pontos', 'vencedores': 10116, 'premio': '25,00'}, {'acertos': '12 Pontos', 'vencedores': 115271, 'premio': '10,00'}, {'acertos': '11 Pontos', 'vencedores': 628659, 'premio': '5,00'}]","[{'nome': 'Mato Grosso', 'uf': 'MT', 'vencedores': '1', 'latitude': '-12.6818712', 'longitude': '-56.921099', 'cidades': [{'cidade': 'Araputanga', 'vencedores': '1', 'latitude': '-15.4706866', 'longitude': '-58.34559549999999'}]}]",False,"R$ 1,5 Milhão",22/06/2022,2553,,
lotofacil,Lotofácil,2551,20/06/2022,"ESPAÇODASORTE em SÃOPAULO,SP","['01', '02', '06', '09', '10', '11', '12', '14', '15', '16', '18', '20', '21', '22', '25']","[{'acertos': '15 Pontos', 'vencedores': 2, 'premio': '791.662,55'}, {'acertos': '14 Pontos', 'vencedores': 315, 'premio': '1.505,61'}, {'acertos': '13 Pontos', 'vencedores': 11224, 'premio': '25,00'}, {'acertos': '12 Pontos', 'vencedores': 120832, 'premio': '10,00'}, {'acertos': '11 Pontos', 'vencedores': 629634, 'premio': '5,00'}]","[{'nome': 'Minas Gerais', 'uf': 'MG', 'vencedores': '1', 'latitude': '-18.512178', 'longitude': '-44.5550308', 'cidades': [{'cidade': '', 'vencedores': '1', 'latitude': None, 'longitude': None}]}, {'nome': 'São Paulo', 'uf': 'SP', 'vencedores': '1', 'latitude': '-23.5557714', 'longitude': '-46.6395571', 'cidades': [{'cidade': 'Sorocaba', 'vencedores': '1', 'latitude': '-23.4557103', 'longitude': '-47.4882762'}]}]",False,"R$ 1,5 Milhão",21/06/2022,2552,,
lotofacil,Lotofácil,2550,18/06/2022,"ESPAÇODASORTE em SÃOPAULO,SP","['01', '02', '06', '07', '09', '10', '12', '13', '17', '18', '20', '21', '23', '24', '25']","[{'acertos': '15 Pontos', 'vencedores': 3, 'premio': '1.450.951,44'}, {'acertos': '14 Pontos', 'vencedores': 433, 'premio': '1.390,98'}, {'acertos': '13 Pontos', 'vencedores': 15580, 'premio': '25,00'}, {'acertos': '12 Pontos', 'vencedores': 175272, 'premio': '10,00'}, {'acertos': '11 Pontos', 'vencedores': 927859, 'premio': '5,00'}]","[{'nome': 'Bahia', 'uf': 'BA', 'vencedores': '1', 'latitude': '-12.579738', 'longitude': '-41.7007272', 'cidades': [{'cidade': '', 'vencedores': '1', 'latitude': None, 'longitude': None}]}, {'nome': 'Pará', 'uf': 'PA', 'vencedores': '1', 'latitude': '-1.9981271', 'longitude': '-54.9306152', 'cidades': [{'cidade': 'Belém', 'vencedores': '1', 'latitude': '-1.4557292', 'longitude': '-48.4901785'}]}, {'nome': 'São Paulo', 'uf': 'SP', 'vencedores': '1', 'latitude': '-23.5557714', 'longitude': '-46.6395571', 'cidades': [{'cidade': '', 'vencedores': '1', 'latitude': None, 'longitude': None}]}]",False,"R$ 1,5 Milhão",20/06/2022,2551,,
lotofacil,Lotofácil,2549,17/06/2022,"ESPAÇODASORTE em SÃOPAULO,SP","['01', '02', '04', '05', '06', '07', '09', '11', '16', '17', '19', '21', '22', '24', '25']","[{'acertos': '15 Pontos', 'vencedores': 1, 'premio': '1.799.605,72'}, {'acertos': '14 Pontos', 'vencedores': 297, 'premio': '1.814,99'}, {'acertos': '13 Pontos', 'vencedores': 11731, 'premio': '25,00'}, {'acertos': '12 Pontos', 'vencedores': 127278, 'premio': '10,00'}, {'acertos': '11 Pontos', 'vencedores': 679676, 'premio': '5,00'}]",[],False,,,2550,,
lotofacil,Lotofácil,2548,15/06/2022,"ESPAÇODASORTE em SÃOPAULO,SP","['01', '02', '03', '04', '05', '08', '09', '11', '13', '15', '16', '18', '19', '23', '25']","[{'acertos': '15 Pontos', 'vencedores': 1, 'premio': '3.234.731,10'}, {'acertos': '14 Pontos', 'vencedores': 562, 'premio': '1.017,27'}, {'acertos': '13 Pontos', 'vencedores': 17264, 'premio': '25,00'}, {'acertos': '12 Pontos', 'vencedores': 210419, 'premio': '10,00'}, {'acertos': '11 Pontos', 'vencedores': 1075136, 'premio': '5,00'}]",[],False,"R$ 1,5 Milhão",17/06/2022,2549,,
lotofacil,Lotofácil,2547,14/06/2022,"ESPAÇODASORTE em SÃOPAULO,SP","['01', '02', '05', '09', '10', '12', '15', '16', '18', '19', '21', '22', '23', '24', '25']","[{'acertos': '15 Pontos', 'vencedores': 0, 'premio': '-'}, {'acertos': '14 Pontos', 'vencedores': 233, 'premio': '1.704,81'}, {'acertos': '13 Pontos', 'vencedores': 9712, 'premio': '25,00'}, {'acertos': '12 Pontos', 'vencedores': 106895, 'premio': '10,00'}, {'acertos': '11 Pontos', 'vencedores': 590585, 'premio': '5,00'}]",[],True,,,2548,,
lotofacil,Lotofácil,2546,13/06/2022,"ESPAÇODASORTE em SÃOPAULO,SP","['02', '04', '05', '07', '08', '09', '10', '11', '14', '17', '20', '21', '22', '24', '25']","[{'acertos': '15 Pontos', 'vencedores': 2, 'premio': '636.470,99'}, {'acertos': '14 Pontos', 'vencedores': 263, 'premio': '1.449,79'}, {'acertos': '13 Pontos', 'vencedores': 11692, 'premio': '25,00'}, {'acertos': '12 Pontos', 'vencedores': 128190, 'premio': '10,00'}, {'acertos': '11 Pontos', 'vencedores': 658698, 'premio': '5,00'}]","[{'nome': 'Mato Grosso', 'uf': 'MT', 'vencedores': '1', 'latitude': '-12.6818712', 'longitude': '-56.921099', 'cidades': [{'cidade': 'Cuiabá', 'vencedores': '1', 'latitude': '-15.6014109', 'longitude': '-56.0978917'}]}, {'nome': 'São Paulo', 'uf': 'SP', 'vencedores': '1', 'latitude': '-23.5557714', 'longitude': '-46.6395571', 'cidades': [{'cidade': 'Votuporanga', 'vencedores': '1', 'latitude': '-20.4066583', 'longitude': '-49.9773473'}]}]",False,"R$ 1,5 Milhão",14/06/2022,2547,,
lotofacil,Lotofácil,2545,11/06/2022,"ESPAÇODASORTE em SÃOPAULO,SP","['01', '02', '03', '05', '07', '09', '10', '13', '14', '15', '16', '19', '20', '21', '24']","[{'acertos': '15 Pontos', 'vencedores': 1, 'premio': '1.278.727,33'}, {'acertos': '14 Pontos', 'vencedores': 278, 'premio': '1.377,80'}, {'acertos': '13 Pontos', 'vencedores': 10403, 'premio': '25,00'}, {'acertos': '12 Pontos', 'vencedores': 117398, 'premio': '10,00'}, {'acertos': '11 Pontos', 'vencedores': 610258, 'premio': '5,00'}]",[],False,"R$ 1,5 Milhão",13/06/2022,2546,,
lotofacil,Lotofácil,2544,10/06/2022,"ESPAÇODASORTE em SÃOPAULO,SP","['03', '05', '06', '07', '08', '10', '11', '12', '13', '15', '18', '20', '21', '23', '24']","[{'acertos': '15 Pontos', 'vencedores': 4, 'premio': '269.995,45'}, {'acertos': '14 Pontos', 'vencedores': 399, 'premio': '810,76'}, {'acertos': '13 Pontos', 'vencedores': 15200, 'premio': '25,00'}, {'acertos': '12 Pontos', 'vencedores': 184223, 'premio': '10,00'}, {'acertos': '11 Pontos', 'vencedores': 777954, 'premio': '5,00'}]","[{'nome': 'Amazonas', 'uf': 'AM', 'vencedores': '1', 'latitude': '-3.4168427', 'longitude': '-65.8560646', 'cidades': [{'cidade': 'Manaus', 'vencedores': '1', 'latitude': '-3.1190275', 'longitude': '-60.0217314'}]}, {'nome': 'Minas Gerais', 'uf': 'MG', 'vencedores': '1', 'latitude': '-18.512178', 'longitude': '-44.5550308', 'cidades': [{'cidade': 'Ipatinga', 'vencedores': '1', 'latitude': '-19.4691377', 'longitude': '-42.5489888'}]}, {'nome': 'Minas Gerais', 'uf': 'MG', 'vencedores': '1', 'latitude': '-18.512178', 'longitude': '-44.5550308', 'cidades': [{'cidade': 'Itapecerica', 'vencedores': '1', 'latitude': '-20.4703278', 'longitude': '-45.1120424'}]}, {'nome': 'São Paulo', 'uf': 'SP', 'vencedores': '1', 'latitude': '-23.5557714', 'longitude': '-46.6395571', 'cidades': [{'cidade': 'Araraquara', 'vencedores': '1', 'latitude': '-21.7848272', 'longitude': '-48.1786486'}]}]",False,"R$ 1,5 Milhão",11/06/2022,2545,,
lotofacil,Lotofácil,2543,09/06/2022,"ESPAÇODASORTE em SÃOPAULO,SP","['03', '05', '06', '07', '08', '09', '11', '12', '14', '17', '18', '19', '20', '24', '25']","[{'acertos': '15 Pontos', 'vencedores': 4, 'premio': '319.059,05'}, {'acertos': '14 Pontos', 'vencedores': 250, 'premio': '1.529,13'}, {'acertos': '13 Pontos', 'vencedores': 9298, 'premio': '25,00'}, {'acertos': '12 Pontos', 'vencedores': 118273, 'premio': '10,00'}, {'acertos': '11 Pontos', 'vencedores': 648575, 'premio': '5,00'}]","[{'nome': 'Pernambuco', 'uf': 'PE', 'vencedores': '1', 'latitude': '-8.8137173', 'longitude': '-36.954107', 'cidades': [{'cidade': 'Tabira', 'vencedores': '1', 'latitude': None, 'longitude': None}]}, {'nome': 'Piauí', 'uf': 'PI', 'vencedores': '1', 'latitude': '38.65501260000001', 'longitude': '-90.2977494', 'cidades': [{'cidade': 'Teresina', 'vencedores': '1', 'latitude': '-5.0920108', 'longitude': '-42.80375970000001'}]}, {'nome': 'Rio de Janeiro', 'uf': 'RJ', 'vencedores': '1', 'latitude': '34.948626', 'longitude': '@@GTo08', 'cidades': [{'cidade': 'Niterói', 'vencedores': '1', 'latitude': '-22.8859267', 'longitude': '-43.1152587'}]}, {'nome': 'São Paulo', 'uf': 'SP', 'vencedores': '1', 'latitude': '-23.5557714', 'longitude': '-46.6395571', 'cidades': [{'cidade': 'Carapicuíba', 'vencedores': '1', 'latitude': '-23.5239623', 'longitude': '-46.8411243'}]}]",False,,,2544,,
lotofacil,Lotofácil,2542,08/06/2022,"ESPAÇODASORTE em SÃOPAULO,SP","['03', '05', '08', '10', '12', '13', '15', '16', '18', '19', '20', '21', '22', '24', '25']","[{'acertos': '15 Pontos', 'vencedores': 3, 'premio': '392.825,35'}, {'acertos': '14 Pontos', 'vencedores': 498, 'premio': '708,83'}, {'acertos': '13 Pontos', 'vencedores': 15100, 'premio': '25,00'}, {'acertos': '12 Pontos', 'vencedores': 156746, 'premio': '10,00'}, {'acertos': '11 Pontos', 'vencedores': 793408, 'premio': '5,00'}]","[{'nome': 'Bahia', 'uf': 'BA', 'vencedores': '1', 'latitude': '-12.579738', 'longitude': '-41.7007272', 'cidades': [{'cidade': 'Retirolândia', 'vencedores': '1', 'latitude': None, 'longitude': None}]}, {'nome': 'Distrito Federal', 'uf': 'DF', 'vencedores': '1', 'latitude': '-15.7997654', 'longitude': '-47.8644715', 'cidades': [{'cidade': 'Brasília', 'vencedores': '1', 'latitude': '-15.826691', 'longitude': '-47.92182039999999'}]}, {'nome': 'Santa Catarina', 'uf': 'SC', 'vencedores': '1', 'latitude': '-27.336122', 'longitude': '-50.071794', 'cidades': [{'cidade': 'Blumenau', 'vencedores': '1', 'latitude': '-26.9165792', 'longitude': '-49.0717331'}]}]",False,,,2543,,
lotofacil,Lotofácil,2541,07/06/2022,"ESPAÇODASORTE em SÃOPAULO,SP","['02', '04', '07', '08', '11', '12', '13', '14', '16', '17', '18', '19', '20', '22', '25']","[{'acertos': '15 Pontos', 'vencedores': 1, 'premio': '1.389.664,36'}, {'acertos': '14 Pontos', 'vencedores': 244, 'premio': '1.705,97'}, {'acertos': '13 Pontos', 'vencedores': 8916, 'premio': '25,00'}, {'acertos': '12 Pontos', 'vencedores': 120307, 'premio': '10,00'}, {'acertos': '11 Pontos', 'vencedores': 680145, 'premio': '5,00'}]","[{'nome': 'São Paulo', 'uf': 'SP', 'vencedores': '1', 'latitude': '-23.5557714', 'longitude': '-46.6395571', 'cidades': [{'cidade': 'São Paulo', 'vencedores': '1', 'latitude': '-23.5505199', 'longitude': '-46.63330939999999'}]}]",False,,,2542,,
lotofacil,Lotofácil,2540,06/06/2022,"ESPAÇODASORTE em SÃOPAULO,SP","['01', '03', '05', '06', '07', '08', '11', '12', '14', '18', '20', '21', '22', '23', '24']","[{'acertos': '15 Pontos', 'vencedores': 3, 'premio': '1.968.602,86'}, {'acertos': '14 Pontos', 'vencedores': 529, 'premio': '1.544,83'}, {'acertos': '13 Pontos', 'vencedores': 18104, 'premio': '25,00'}, {'acertos': '12 Pontos', 'vencedores': 225843, 'premio': '10,00'}, {'acertos': '11 Pontos', 'vencedores': 1217493, 'premio': '5,00'}]",[],False,"R$ 1,5 Milhão",07/06/2022,2541,,
lotofacil,Lotofácil,2539,04/06/2022,"ESPAÇODASORTE em SÃOPAULO,SP","['01', '03', '04', '05', '06', '09', '10', '13', '16', '17', '18', '20', '23', '24', '25']","[{'acertos': '15 Pontos', 'vencedores': 1, 'premio': '1.387.024,79'}, {'acertos': '14 Pontos', 'vencedores': 203, 'premio': '1.432,65'}, {'acertos': '13 Pontos', 'vencedores': 8227, 'premio': '25,00'}, {'acertos': '12 Pontos', 'vencedores': 112197, 'premio': '10,00'}, {'acertos': '11 Pontos', 'vencedores': 652723, 'premio': '5,00'}]","[{'nome': 'São Paulo', 'uf': 'SP', 'vencedores': '1', 'latitude': '-23.5557714', 'longitude': '-46.6395571', 'cidades': [{'cidade': 'Itatinga', 'vencedores': '1', 'latitude': None, 'longitude': None}]}]",False,,,2540,,
lotofacil,Lotofácil,2538,03/06/2022,"ESPAÇODASORTE em SÃOPAULO,SP","['01', '02', '04', '05', '06', '08', '09', '13', '14', '16', '17', '21', '22', '24', '25']","[{'acertos': '15 Pontos', 'vencedores': 1, 'premio': '1.865.629,16'}, {'acertos': '14 Pontos', 'vencedores': 249, 'premio': '1.571,01'}, {'acertos': '13 Pontos', 'vencedores': 9024, 'premio': '25,00'}, {'acertos': '12 Pontos', 'vencedores': 114493, 'premio': '10,00'}, {'acertos': '11 Pontos', 'vencedores': 651198, 'premio': '5,00'}]",[],False,,,2539,,
lotofacil,Lotofácil,2537,02/06/2022,"ESPAÇODASORTE em SÃOPAULO,SP","['02', '04', '05', '06', '07', '09', '10', '12', '14', '16', '18', '19', '22', '23', '24']","[{'acertos': '15 Pontos', 'vencedores': 3, 'premio': '435.336,04'}, {'acertos': '14 Pontos', 'vencedores': 487, 'premio': '803,28'}, {'acertos': '13 Pontos', 'vencedores': 12060, 'premio': '25,00'}, {'acertos': '12 Pontos', 'vencedores': 121329, 'premio': '10,00'}, {'acertos': '11 Pontos', 'vencedores': 597083, 'premio': '5,00'}]","[{'nome': 'Distrito Federal', 'uf': 'DF', 'vencedores': '1', 'latitude': '-15.7997654', 'longitude': '-47.8644715', 'cidades': [{'cidade': 'Brasília', 'vencedores': '1', 'latitude': '-15.826691', 'longitude': '-47.92182039999999'}]}, {'nome': 'Minas Gerais', 'uf': 'MG', 'vencedores': '1', 'latitude': '-18.512178', 'longitude': '-44.5550308', 'cidades': [{'cidade': '', 'vencedores': '1', 'latitude': None, 'longitude': None}]}, {'nome': 'Minas Gerais', 'uf': 'MG', 'vencedores': '1', 'latitude': '-18.512178', 'longitude': '-44.5550308', 'cidades': [{'cidade': 'Minduri', 'vencedores': '1', 'latitude': None, 'longitude': None}]}]",False,,,2538,,
lotofacil,Lotofácil,2536,01/06/2022,"ESPAÇODASORTE em SÃOPAULO,SP","['01', '02', '04', '06', '09', '12', '13', '15', '16', '17', '18', '19', '21', '23', '25']","[{'acertos': '15 Pontos', 'vencedores': 4, 'premio': '905.060,62'}, {'acertos': '14 Pontos', 'vencedores': 596, 'premio': '1.186,14'}, {'acertos': '13 Pontos', 'vencedores': 17049, 'premio': '25,00'}, {'acertos': '12 Pontos', 'vencedores': 182073, 'premio': '10,00'}, {'acertos': '11 Pontos', 'vencedores': 953909, 'premio': '5,00'}]",[],False,,,2537,,
lotofacil,Lotofácil,2535,31/05/2022,"ESPAÇODASORTE em SÃOPAULO,SP","['05', '06', '07', '08', '11', '12', '13', '14', '15', '16', '18', '20', '22', '24', '25']","[{'acertos': '15 Pontos', 'vencedores': 0, 'premio': '-'}, {'acertos': '14 Pontos', 'vencedores': 235, 'premio': '1.606,21'}, {'acertos': '13 Pontos', 'vencedores': 8811, 'premio': '25,00'}, {'acertos': '12 Pontos', 'vencedores': 120388, 'premio': '10,00'}, {'acertos': '11 Pontos', 'vencedores': 643177, 'premio': '5,00'}]",[],True,,,2536,,
lotofacil,Lotofácil,2534,30/05/2022,"ESPAÇODASORTE em SÃOPAULO,SP","['07', '08', '10', '11', '12', '14', '15', '16', '17', '18', '20', '21', '22', '23', '25']","[{'acertos': '15 Pontos', 'vencedores': 5, 'premio': '718.802,08'}, {'acertos': '14 Pontos', 'vencedores': 435, 'premio': '1.513,38'}, {'acertos': '13 Pontos', 'vencedores': 14904, 'premio': '25,00'}, {'acertos': '12 Pontos', 'vencedores': 184379, 'premio': '10,00'}, {'acertos': '11 Pontos', 'vencedores': 895885, 'premio': '5,00'}]",[],False,"R$ 1,5 Milhão",31/05/2022,2535,,
lotofacil,Lotofácil,2533,28/05/2022,"ESPAÇODASORTE em SÃOPAULO,SP","['04', '07', '08', '10', '11', '12', '15', '16', '17', '18', '19', '22', '23', '24', '25']","[{'acertos': '15 Pontos', 'vencedores': 0, 'premio': '-'}, {'acertos': '14 Pontos', 'vencedores': 270, 'premio': '1.548,97'}, {'acertos': '13 Pontos', 'vencedores': 7502, 'premio': '25,00'}, {'acertos': '12 Pontos', 'vencedores': 95717, 'premio': '10,00'}, {'acertos': '11 Pontos', 'vencedores': 554009, 'premio': '5,00'}]",[],True,,,2534,,
lotofacil,Lotofácil,2532,27/05/2022,"ESPAÇODASORTE em SÃOPAULO,SP","['01', '02', '03', '04', '06', '09', '10', '12', '13', '14', '16', '17', '18', '22', '25']","[{'acertos': '15 Pontos', 'vencedores': 1, 'premio': '1.590.952,14'}, {'acertos': '14 Pontos', 'vencedores': 192, 'premio': '1.737,43'}, {'acertos': '13 Pontos', 'vencedores': 8196, 'premio': '25,00'}, {'acertos': '12 Pontos', 'vencedores': 102310, 'premio': '10,00'}, {'acertos': '11 Pontos', 'vencedores': 598280, 'premio': '5,00'}]","[{'nome': 'São Paulo', 'uf': 'SP', 'vencedores': '1', 'latitude': '-23.5557714', 'longitude': '-46.6395571', 'cidades': [{'cidade': 'Bauru', 'vencedores': '1', 'latitude': '-22.314459', 'longitude': '-49.0586951'}]}]",False,,,2533,,
lotofacil,Lotofácil,2531,26/05/2022,"ESPAÇODASORTE em SÃOPAULO,SP","['01', '02', '03', '04', '05', '07', '08', '11', '12', '16', '17', '18', '20', '21', '25']","[{'acertos': '15 Pontos', 'vencedores': 3, 'premio': '2.914.103,29'}, {'acertos': '14 Pontos', 'vencedores': 381, 'premio': '1.985,99'}, {'acertos': '13 Pontos', 'vencedores': 16050, 'premio': '25,00'}, {'acertos': '12 Pontos', 'vencedores': 222511, 'premio': '10,00'}, {'acertos': '11 Pontos', 'vencedores': 1313658, 'premio': '5,00'}]",[],False,,,2532,,
lotofacil,Lotofácil,2530,25/05/2022,"ESPAÇODASORTE em SÃOPAULO,SP","['01', '02', '04', '06', '07', '08', '09', '11', '13', '15', '21', '22', '23', '24', '25']","[{'acertos': '15 Pontos', 'vencedores': 0, 'premio': '-'}, {'acertos': '14 Pontos', 'vencedores': 325, 'premio': '1.741,39'}, {'acertos': '13 Pontos', 'vencedores': 12998, 'premio': '25,00'}, {'acertos': '12 Pontos', 'vencedores': 179266, 'premio': '10,00'}, {'acertos': '11 Pontos', 'vencedores': 1018641, 'premio': '5,00'}]",[],True,,,2531,,
lotofacil,Lotofácil,2529,24/05/2022,"ESPAÇODASORTE em SÃOPAULO,SP","['03', '05', '06', '08', '09', '11', '12', '13', '14', '16', '18', '21', '22', '24', '25']","[{'acertos': '15 Pontos', 'vencedores': 2, 'premio': '594.784,99'}, {'acertos': '14 Pontos', 'vencedores': 240, 'premio': '1.484,67'}, {'acertos': '13 Pontos', 'vencedores': 9526, 'premio': '25,00'}, {'acertos': '12 Pontos', 'vencedores': 102530, 'premio': '10,00'}, {'acertos': '11 Pontos', 'vencedores': 549518, 'premio': '5,00'}]","[{'nome': 'Bahia', 'uf': 'BA', 'vencedores': '1', 'latitude': '-12.579738', 'longitude': '-41.7007272', 'cidades': [{'cidade': '', 'vencedores': '1', 'latitude': None, 'longitude': None}]}]",False,,,2530,,
lotofacil,Lotofácil,2528,23/05/2022,"ESPAÇODASORTE em SÃOPAULO,SP","['02', '03', '05', '07', '08', '09', '10', '11', '12', '13', '15', '20', '22', '23', '24']","[{'acertos': '15 Pontos', 'vencedores': 4, 'premio': '276.148,88'}, {'acertos': '14 Pontos', 'vencedores': 255, 'premio': '1.297,52'}, {'acertos': '13 Pontos', 'vencedores': 10698, 'premio': '25,00'}, {'acertos': '12 Pontos', 'vencedores': 133232, 'premio': '10,00'}, {'acertos': '11 Pontos', 'vencedores': 703398, 'premio': '5,00'}]","[{'nome': 'Minas Gerais', 'uf': 'MG', 'vencedores': '1', 'latitude': '-18.512178', 'longitude': '-44.5550308', 'cidades': [{'cidade': '', 'vencedores': '1', 'latitude': None, 'longitude': None}]}, {'nome': 'Rio de Janeiro', 'uf': 'RJ', 'vencedores': '1', 'latitude': '34.948626', 'longitude': '@@GTo08', 'cidades': [{'cidade': '', 'vencedores': '1', 'latitude': None, 'longitude': None}]}]",False,,,2529,,
lotofacil,Lotofácil,2527,21/05/2022,"ESPAÇODASORTE em SÃOPAULO,SP","['01', '02', '05', '06', '09', '11', '12', '13', '14', '17', '18', '19', '20', '21', '23']","[{'acertos': '15 Pontos', 'vencedores': 5, 'premio': '270.269,79'}, {'acertos': '14 Pontos', 'vencedores': 168, 'premio': '1.686,59'}, {'acertos': '13 Pontos', 'vencedores': 7604, 'premio': '25,00'}, {'acertos': '12 Pontos', 'vencedores': 100739, 'premio': '10,00'}, {'acertos': '11 Pontos', 'vencedores': 570498, 'premio': '5,00'}]","[{'nome': 'Paraná', 'uf': 'PR', 'vencedores': '2', 'latitude': '-25.2520888', 'longitude': '-52.0215415', 'cidades': [{'cidade': '', 'vencedores': '2', 'latitude': None, 'longitude': None}]}, {'nome': 'Santa Catarina', 'uf': 'SC', 'vencedores': '1', 'latitude': '-27.336122', 'longitude': '-50.071794', 'cidades': [{'cidade': 'Chapecó', 'vencedores': '1', 'latitude': '-27.1009343', 'longitude': '-52.615699'}]}, {'nome': 'São Paulo', 'uf': 'SP', 'vencedores': '1', 'latitude': '-23.5557714', 'longitude': '-46.6395571', 'cidades': [{'cidade': '', 'vencedores': '1', 'latitude': None, 'longitude': None}]}]",False,,,2528,,
lotofacil,Lotofácil,2526,20/05/2022,"ESPAÇODASORTE em SÃOPAULO,SP","['01', '02', '06', '08', '11', '12', '13', '14', '16', '17', '19', '20', '22', '23', '24']","[{'acertos': '15 Pontos', 'vencedores': 2, 'premio': '890.879,07'}, {'acertos': '14 Pontos', 'vencedores': 184, 'premio': '2.030,40'}, {'acertos': '13 Pontos', 'vencedores': 7838, 'premio': '25,00'}, {'acertos': '12 Pontos', 'vencedores': 99572, 'premio': '10,00'}, {'acertos': '11 Pontos', 'vencedores': 581941, 'premio': '5,00'}]","[{'nome': 'Goiás', 'uf': 'GO', 'vencedores': '1', 'latitude': '36.7156122', 'longitude': '-95.9435511', 'cidades': [{'cidade': '', 'vencedores': '1', 'latitude': None, 'longitude': None}]}, {'nome': 'São Paulo', 'uf': 'SP', 'vencedores': '1', 'latitude': '-23.5557714', 'longitude': '-46.6395571', 'cidades': [{'cidade': 'Guarulhos', 'vencedores': '1', 'latitude': '-23.4543395', 'longitude': '-46.5336678'}]}]",False,,,2527,,
lotofacil,Lotofácil,2525,19/05/2022,"ESPAÇODASORTE em SÃOPAULO,SP","['04', '06', '10', '11', '12', '13', '16', '17', '18', '19', '20', '21', '23', '24', '25']","[{'acertos': '15 Pontos', 'vencedores': 2, 'premio': '707.835,50'}, {'acertos': '14 Pontos', 'vencedores': 148, 'premio': '2.005,64'}, {'acertos': '13 Pontos', 'vencedores': 5975, 'premio': '25,00'}, {'acertos': '12 Pontos', 'vencedores': 93525, 'premio': '10,00'}, {'acertos': '11 Pontos', 'vencedores': 487254, 'premio': '5,00'}]","[{'nome': 'Paraná', 'uf': 'PR', 'vencedores': '1', 'latitude': '-25.2520888', 'longitude': '-52.0215415', 'cidades': [{'cidade': '', 'vencedores': '1', 'latitude': None, 'longitude': None}]}, {'nome': 'Rio de Janeiro', 'uf': 'RJ', 'vencedores': '1', 'latitude': '34.948626', 'longitude': '@@GTo08', 'cidades': [{'cidade': '', 'vencedores': '1', 'latitude': None, 'longitude': None}]}]",False,,,2526,,
lotofacil,Lotofácil,2524,18/05/2022,"ESPAÇODASORTE em SÃOPAULO,SP","['01', '02', '03', '05', '06', '07', '12', '14', '15', '16', '19', '20', '23', '24', '25']","[{'acertos': '15 Pontos', 'vencedores': 1, 'premio': '1.370.463,72'}, {'acertos': '14 Pontos', 'vencedores': 297, 'premio': '1.382,18'}, {'acertos': '13 Pontos', 'vencedores': 10736, 'premio': '25,00'}, {'acertos': '12 Pontos', 'vencedores': 115470, 'premio': '10,00'}, {'acertos': '11 Pontos', 'vencedores': 619076, 'premio': '5,00'}]","[{'nome': 'Rio de Janeiro', 'uf': 'RJ', 'vencedores': '1', 'latitude': '34.948626', 'longitude': '@@GTo08', 'cidades': [{'cidade': '', 'vencedores': '1', 'latitude': None, 'longitude': None}]}]",False,,,2525,,
lotofacil,Lotofácil,2523,17/05/2022,"ESPAÇODASORTE em SÃOPAULO,SP","['01', '04', '05', '06', '07', '10', '11', '12', '14', '15', '17', '18', '20', '23', '24']","[{'acertos': '15 Pontos', 'vencedores': 1, 'premio': '1.284.224,95'}, {'acertos': '14 Pontos', 'vencedores': 362, 'premio': '1.062,63'}, {'acertos': '13 Pontos', 'vencedores': 11187, 'premio': '25,00'}, {'acertos': '12 Pontos', 'vencedores': 115840, 'premio': '10,00'}, {'acertos': '11 Pontos', 'vencedores': 573274, 'premio': '5,00'}]","[{'nome': 'Bahia', 'uf': 'BA', 'vencedores': '1', 'latitude': '-12.579738', 'longitude': '-41.7007272', 'cidades': [{'cidade': 'Uruçuca', 'vencedores': '1', 'latitude': '-14.5928544', 'longitude': '-39.2840138'}]}]",False,,,2524,,
lotofacil,Lotofácil,2522,16/05/2022,"ESPAÇODASORTE em SÃOPAULO,SP","['01', '02', '03', '05', '09', '10', '12', '13', '15', '16', '18', '19', '21', '22', '25']","[{'acertos': '15 Pontos', 'vencedores': 4, 'premio': '346.822,03'}, {'acertos': '14 Pontos', 'vencedores': 366, 'premio': '1.135,37'}, {'acertos': '13 Pontos', 'vencedores': 11679, 'premio': '25,00'}, {'acertos': '12 Pontos', 'vencedores': 132708, 'premio': '10,00'}, {'acertos': '11 Pontos', 'vencedores': 696643, 'premio': '5,00'}]","[{'nome': 'Maranhão', 'uf': 'MA', 'vencedores': '1', 'latitude': '42.4072107', 'longitude': '-71.3824374', 'cidades': [{'cidade': '', 'vencedores': '1', 'latitude': None, 'longitude': None}]}, {'nome': 'Rio Grande do Sul', 'uf': 'RS', 'vencedores': '1', 'latitude': '-30.0346316', 'longitude': '-51.2176986', 'cidades': [{'cidade': '', 'vencedores': '1', 'latitude': None, 'longitude': None}]}, {'nome': 'São Paulo', 'uf': 'SP', 'vencedores': '1', 'latitude': '-23.5557714', 'longitude': '-46.6395571', 'cidades': [{'cidade': 'Mauá', 'vencedores': '1', 'latitude': '-23.666558', 'longitude': '-46.4599145'}]}, {'nome': 'São Paulo', 'uf': 'SP', 'vencedores': '1', 'latitude': '-23.5557714', 'longitude': '-46.6395571', 'cidades': [{'cidade': 'São Paulo', 'vencedores': '1', 'latitude': '-23.5505199', 'longitude': '-46.63330939999999'}]}]",False,,,2523,,
lotofacil,Lotofácil,2521,14/05/2022,"ESPAÇODASORTE em SÃOPAULO,SP","['02', '03', '04', '06', '07', '08', '13', '14', '16', '17', '18', '21', '22', '24', '25']","[{'acertos': '15 Pontos', 'vencedores': 4, 'premio': '377.378,53'}, {'acertos': '14 Pontos', 'vencedores': 419, 'premio': '1.079,13'}, {'acertos': '13 Pontos', 'vencedores': 9668, 'premio': '25,00'}, {'acertos': '12 Pontos', 'vencedores': 107774, 'premio': '10,00'}, {'acertos': '11 Pontos', 'vencedores': 542873, 'premio': '5,00'}]","[{'nome': 'Paraná', 'uf': 'PR', 'vencedores': '1', 'latitude': '-25.2520888', 'longitude': '-52.0215415', 'cidades': [{'cidade': '', 'vencedores': '1', 'latitude': None, 'longitude': None}]}, {'nome': 'Santa Catarina', 'uf': 'SC', 'vencedores': '1', 'latitude': '-27.336122', 'longitude': '-50.071794', 'cidades': [{'cidade': '', 'vencedores': '1', 'latitude': None, 'longitude': None}]}, {'nome': 'São Paulo', 'uf': 'SP', 'vencedores': '1', 'latitude': '-23.5557714', 'longitude': '-46.6395571', 'cidades': [{'cidade': '', 'vencedores': '1', 'latitude': None, 'longitude': None}]}, {'nome': 'São Paulo', 'uf': 'SP', 'vencedores': '1', 'latitude': '-23.5557714', 'longitude': '-46.6395571', 'cidades': [{'cidade': 'São Vicente', 'vencedores': '1', 'latitude': '-23.9607157', 'longitude': '-46.3962022'}]}]",False,,,2522,,
lotofacil,Lotofácil,2520,13/05/2022,"ESPAÇODASORTE em SÃOPAULO,SP","['01', '02', '04', '05', '06', '07', '08', '10', '14', '15', '16', '18', '23', '24', '25']","[{'acertos': '15 Pontos', 'vencedores': 3, 'premio': '1.824.974,55'}, {'acertos': '14 Pontos', 'vencedores': 520, 'premio': '1.646,82'}, {'acertos': '13 Pontos', 'vencedores': 17125, 'premio': '25,00'}, {'acertos': '12 Pontos', 'vencedores': 212295, 'premio': '10,00'}, {'acertos': '11 Pontos', 'vencedores': 1129853, 'premio': '5,00'}]",[],False,,,2521,,
lotofacil,Lotofácil,2519,12/05/2022,"ESPAÇODASORTE em SÃOPAULO,SP","['02', '03', '04', '05', '08', '10', '11', '12', '13', '14', '18', '19', '22', '24', '25']","[{'acertos': '15 Pontos', 'vencedores': 1, 'premio': '930.965,75'}, {'acertos': '14 Pontos', 'vencedores': 340, 'premio': '820,17'}, {'acertos': '13 Pontos', 'vencedores': 13249, 'premio': '25,00'}, {'acertos': '12 Pontos', 'vencedores': 152389, 'premio': '10,00'}, {'acertos': '11 Pontos', 'vencedores': 716492, 'premio': '5,00'}]","[{'nome': 'Maranhão', 'uf': 'MA', 'vencedores': '1', 'latitude': '42.4072107', 'longitude': '-71.3824374', 'cidades': [{'cidade': '', 'vencedores': '1', 'latitude': None, 'longitude': None}]}]",False,,,2520,,
lotofacil,Lotofácil,2518,11/05/2022,"ESPAÇODASORTE em SÃOPAULO,SP","['01', '02', '04', '05', '06', '08', '11', '13', '14', '15', '20', '22', '23', '24', '25']","[{'acertos': '15 Pontos', 'vencedores': 1, 'premio': '1.569.226,94'}, {'acertos': '14 Pontos', 'vencedores': 283, 'premio': '1.660,93'}, {'acertos': '13 Pontos', 'vencedores': 9740, 'premio': '25,00'}, {'acertos': '12 Pontos', 'vencedores': 133435, 'premio': '10,00'}, {'acertos': '11 Pontos', 'vencedores': 691752, 'premio': '5,00'}]","[{'nome': 'São Paulo', 'uf': 'SP', 'vencedores': '1', 'latitude': '-23.5557714', 'longitude': '-46.6395571', 'cidades': [{'cidade': '', 'vencedores': '1', 'latitude': None, 'longitude': None}]}]",False,,,2519,,
lotofacil,Lotofácil,2517,10/05/2022,"ESPAÇODASORTE em SÃOPAULO,SP","['01', '02', '03', '05', '06', '09', '10', '12', '14', '15', '16', '20', '21', '23', '24']","[{'acertos': '15 Pontos', 'vencedores': 2, 'premio': '701.852,20'}, {'acertos': '14 Pontos', 'vencedores': 335, 'premio': '1.255,11'}, {'acertos': '13 Pontos', 'vencedores': 11045, 'premio': '25,00'}, {'acertos': '12 Pontos', 'vencedores': 131826, 'premio': '10,00'}, {'acertos': '11 Pontos', 'vencedores': 647876, 'premio': '5,00'}]","[{'nome': 'Santa Catarina', 'uf': 'SC', 'vencedores': '1', 'latitude': '-27.336122', 'longitude': '-50.071794', 'cidades': [{'cidade': 'Florianópolis', 'vencedores': '1', 'latitude': '-27.5948698', 'longitude': '-48.54821949999999'}]}]",False,,,2518,,
lotofacil,Lotofácil,2516,09/05/2022,"ESPAÇODASORTE em SÃOPAULO,SP","['01', '02', '03', '05', '07', '08', '10', '11', '14', '15', '16', '17', '21', '22', '24']","[{'acertos': '15 Pontos', 'vencedores': 2, 'premio': '860.319,95'}, {'acertos': '14 Pontos', 'vencedores': 304, 'premio': '1.695,39'}, {'acertos': '13 Pontos', 'vencedores': 10217, 'premio': '25,00'}, {'acertos': '12 Pontos', 'vencedores': 119862, 'premio': '10,00'}, {'acertos': '11 Pontos', 'vencedores': 644700, 'premio': '5,00'}]","[{'nome': 'Paraná', 'uf': 'PR', 'vencedores': '1', 'latitude': '-25.2520888', 'longitude': '-52.0215415', 'cidades': [{'cidade': 'Marechal Cândido Rondon', 'vencedores': '1', 'latitude': None, 'longitude': None}]}, {'nome': 'Santa Catarina', 'uf': 'SC', 'vencedores': '1', 'latitude': '-27.336122', 'longitude': '-50.071794', 'cidades': [{'cidade': 'Florianópolis', 'vencedores': '1', 'latitude': '-27.5948698', 'longitude': '-48.54821949999999'}]}]",False,,,2517,,
lotofacil,Lotofácil,2515,07/05/2022,"ESPAÇODASORTE em SÃOPAULO,SP","['04', '05', '07', '08', '09', '11', '12', '14', '15', '16', '19', '21', '22', '24', '25']","[{'acertos': '15 Pontos', 'vencedores': 1, 'premio': '1.548.177,85'}, {'acertos': '14 Pontos', 'vencedores': 295, 'premio': '1.571,99'}, {'acertos': '13 Pontos', 'vencedores': 9878, 'premio': '25,00'}, {'acertos': '12 Pontos', 'vencedores': 112036, 'premio': '10,00'}, {'acertos': '11 Pontos', 'vencedores': 625738, 'premio': '5,00'}]","[{'nome': 'Distrito Federal', 'uf': 'DF', 'vencedores': '1', 'latitude': '-15.7997654', 'longitude': '-47.8644715', 'cidades': [{'cidade': 'Brasília', 'vencedores': '1', 'latitude': '-15.826691', 'longitude': '-47.92182039999999'}]}]",False,,,2516,,
lotofacil,Lotofácil,2514,06/05/2022,"ESPAÇODASORTE em SÃOPAULO,SP","['02', '03', '05', '06', '07', '08', '09', '12', '14', '15', '16', '18', '19', '21', '24']","[{'acertos': '15 Pontos', 'vencedores': 2, 'premio': '900.330,37'}, {'acertos': '14 Pontos', 'vencedores': 503, 'premio': '1.072,30'}, {'acertos': '13 Pontos', 'vencedores': 13070, 'premio': '25,00'}, {'acertos': '12 Pontos', 'vencedores': 136301, 'premio': '10,00'}, {'acertos': '11 Pontos', 'vencedores': 698782, 'premio': '5,00'}]","[{'nome': 'São Paulo', 'uf': 'SP', 'vencedores': '1', 'latitude': '-23.5557714', 'longitude': '-46.6395571', 'cidades': [{'cidade': 'Caieiras', 'vencedores': '1', 'latitude': '-23.3614001', 'longitude': '-46.7401106'}]}, {'nome': 'São Paulo', 'uf': 'SP', 'vencedores': '1', 'latitude': '-23.5557714', 'longitude': '-46.6395571', 'cidades': [{'cidade': 'São Paulo', 'vencedores': '1', 'latitude': '-23.5505199', 'longitude': '-46.63330939999999'}]}]",False,,,2515,,
lotofacil,Lotofácil,2513,05/05/2022,"ESPAÇODASORTE em SÃOPAULO,SP","['02', '03', '04', '06', '07', '09', '11', '12', '16', '17', '19', '20', '21', '23', '24']","[{'acertos': '15 Pontos', 'vencedores': 2, 'premio': '790.992,44'}, {'acertos': '14 Pontos', 'vencedores': 321, 'premio': '1.476,21'}, {'acertos': '13 Pontos', 'vencedores': 9529, 'premio': '25,00'}, {'acertos': '12 Pontos', 'vencedores': 108440, 'premio': '10,00'}, {'acertos': '11 Pontos', 'vencedores': 564719, 'premio': '5,00'}]","[{'nome': 'Mato Grosso do Sul', 'uf': 'MS', 'vencedores': '1', 'latitude': '37.09024', 'longitude': '-95.712891', 'cidades': [{'cidade': 'Eldorado', 'vencedores': '1', 'latitude': '-23.7816031', 'longitude': '-54.2812804'}]}]",False,,,2514,,
lotofacil,Lotofácil,2512,04/05/2022,"ESPAÇODASORTE em SÃOPAULO,SP","['01', '02', '03', '07', '09', '10', '12', '14', '15', '16', '18', '19', '20', '21', '23']","[{'acertos': '15 Pontos', 'vencedores': 2, 'premio': '806.435,77'}, {'acertos': '14 Pontos', 'vencedores': 289, 'premio': '1.671,68'}, {'acertos': '13 Pontos', 'vencedores': 11072, 'premio': '25,00'}, {'acertos': '12 Pontos', 'vencedores': 124417, 'premio': '10,00'}, {'acertos': '11 Pontos', 'vencedores': 657985, 'premio': '5,00'}]","[{'nome': 'Paraíba', 'uf': 'PB', 'vencedores': '1', 'latitude': '-7.239960900000001', 'longitude': '-36.7819505', 'cidades': [{'cidade': '', 'vencedores': '1', 'latitude': None, 'longitude': None}]}, {'nome': 'Paraná', 'uf': 'PR', 'vencedores': '1', 'latitude': '-25.2520888', 'longitude': '-52.0215415', 'cidades': [{'cidade': 'Araucária', 'vencedores': '1', 'latitude': '-25.586431', 'longitude': '-49.4052251'}]}]",False,,,2513,,
lotofacil,Lotofácil,2511,03/05/2022,"ESPAÇODASORTE em SÃOPAULO,SP","['01', '03', '04', '05', '06', '08', '09', '11', '15', '16', '18', '21', '23', '24', '25']","[{'acertos': '15 Pontos', 'vencedores': 3, 'premio': '397.442,57'}, {'acertos': '14 Pontos', 'vencedores': 329, 'premio': '1.085,55'}, {'acertos': '13 Pontos', 'vencedores': 12078, 'premio': '25,00'}, {'acertos': '12 Pontos', 'vencedores': 145488, 'premio': '10,00'}, {'acertos': '11 Pontos', 'vencedores': 656997, 'premio': '5,00'}]","[{'nome': 'Minas Gerais', 'uf': 'MG', 'vencedores': '1', 'latitude': '-18.512178', 'longitude': '-44.5550308', 'cidades': [{'cidade': 'Curvelo', 'vencedores': '1', 'latitude': '-18.7532048', 'longitude': '-44.4306733'}]}, {'nome': 'Rio de Janeiro', 'uf': 'RJ', 'vencedores': '1', 'latitude': '34.948626', 'longitude': '@@GTo08', 'cidades': [{'cidade': '', 'vencedores': '1', 'latitude': None, 'longitude': None}]}, {'nome': 'São Paulo', 'uf': 'SP', 'vencedores': '1', 'latitude': '-23.5557714', 'longitude': '-46.6395571', 'cidades': [{'cidade': 'Sorocaba', 'vencedores': '1', 'latitude': '-23.4557103', 'longitude': '-47.4882762'}]}]",False,,,2512,,
lotofacil,Lotofácil,2510,02/05/2022,"ESPAÇODASORTE em SÃOPAULO,SP","['01', '02', '05', '07', '11', '13', '14', '16', '17', '19', '20', '22', '23', '24', '25']","[{'acertos': '15 Pontos', 'vencedores': 2, 'premio': '2.302.941,77'}, {'acertos': '14 Pontos', 'vencedores': 517, 'premio': '1.348,87'}, {'acertos': '13 Pontos', 'vencedores': 17628, 'premio': '25,00'}, {'acertos': '12 Pontos', 'vencedores': 207840, 'premio': '10,00'}, {'acertos': '11 Pontos', 'vencedores': 1116873, 'premio': '5,00'}]",[],False,"R$ 1,5 Milhão",03/05/2022,2511,,
lotofacil,Lotofácil,2509,30/04/2022,"ESPAÇODASORTE em SÃOPAULO,SP","['02', '03', '04', '05', '09', '10', '11', '12', '13', '14', '19', '21', '22', '23', '25']","[{'acertos': '15 Pontos', 'vencedores': 1, 'premio': '1.095.613,68'}, {'acertos': '14 Pontos', 'vencedores': 243, 'premio': '1.350,53'}, {'acertos': '13 Pontos', 'vencedores': 9668, 'premio': '25,00'}, {'acertos': '12 Pontos', 'vencedores': 131822, 'premio': '10,00'}, {'acertos': '11 Pontos', 'vencedores': 680637, 'premio': '5,00'}]",[],False,,,2510,,
lotofacil,Lotofácil,2508,29/04/2022,"ESPAÇODASORTE em SÃOPAULO,SP","['01', '02', '05', '06', '07', '10', '11', '12', '14', '15', '17', '18', '19', '20', '21']","[{'acertos': '15 Pontos', 'vencedores': 3, 'premio': '524.029,36'}, {'acertos': '14 Pontos', 'vencedores': 326, 'premio': '1.444,48'}, {'acertos': '13 Pontos', 'vencedores': 10101, 'premio': '25,00'}, {'acertos': '12 Pontos', 'vencedores': 121535, 'premio': '10,00'}, {'acertos': '11 Pontos', 'vencedores': 644902, 'premio': '5,00'}]","[{'nome': 'Goiás', 'uf': 'GO', 'vencedores': '1', 'latitude': '36.7156122', 'longitude': '-95.9435511', 'cidades': [{'cidade': '', 'vencedores': '1', 'latitude': None, 'longitude': None}]}, {'nome': 'São Paulo', 'uf': 'SP', 'vencedores': '1', 'latitude': '-23.5557714', 'longitude': '-46.6395571', 'cidades': [{'cidade': 'Andradina', 'vencedores': '1', 'latitude': '-20.8575818', 'longitude': '-51.3889736'}]}]",False,"R$ 1,5 Milhão",30/04/2022,2509,,
lotofacil,Lotofácil,2507,28/04/2022,"ESPAÇODASORTE em SÃOPAULO,SP","['03', '04', '05', '07', '08', '09', '10', '11', '13', '14', '15', '16', '19', '20', '25']","[{'acertos': '15 Pontos', 'vencedores': 1, 'premio': '982.276,23'}, {'acertos': '14 Pontos', 'vencedores': 343, 'premio': '857,81'}, {'acertos': '13 Pontos', 'vencedores': 16467, 'premio': '25,00'}, {'acertos': '12 Pontos', 'vencedores': 120932, 'premio': '10,00'}, {'acertos': '11 Pontos', 'vencedores': 632473, 'premio': '5,00'}]","[{'nome': 'São Paulo', 'uf': 'SP', 'vencedores': '1', 'latitude': '-23.5557714', 'longitude': '-46.6395571', 'cidades': [{'cidade': 'Caraguatatuba', 'vencedores': '1', 'latitude': '-23.6255903', 'longitude': '-45.4241453'}]}]",False,,,2508,,
lotofacil,Lotofácil,2506,27/04/2022,"ESPAÇODASORTE em SÃOPAULO,SP","['03', '04', '05', '08', '09', '10', '11', '14', '15', '16', '18', '19', '20', '22', '25']","[{'acertos': '15 Pontos', 'vencedores': 2, 'premio': '629.367,41'}, {'acertos': '14 Pontos', 'vencedores': 312, 'premio': '1.208,46'}, {'acertos': '13 Pontos', 'vencedores': 10917, 'premio': '25,00'}, {'acertos': '12 Pontos', 'vencedores': 130230, 'premio': '10,00'}, {'acertos': '11 Pontos', 'vencedores': 655810, 'premio': '5,00'}]","[{'nome': 'Paraná', 'uf': 'PR', 'vencedores': '1', 'latitude': '-25.2520888', 'longitude': '-52.0215415', 'cidades': [{'cidade': 'Rolândia', 'vencedores': '1', 'latitude': None, 'longitude': None}]}, {'nome': 'Rio de Janeiro', 'uf': 'RJ', 'vencedores': '1', 'latitude': '34.948626', 'longitude': '@@GTo08', 'cidades': [{'cidade': 'Rio de Janeiro', 'vencedores': '1', 'latitude': '-22.9068467', 'longitude': '-43.1728965'}]}]",False,"R$ 1,5 Milhão",28/04/2022,2507,,
lotofacil,Lotofácil,2505,26/04/2022,"ESPAÇODASORTE em SÃOPAULO,SP","['01', '02', '03', '04', '06', '08', '09', '10', '17', '18', '19', '21', '23', '24', '25']","[{'acertos': '15 Pontos', 'vencedores': 1, 'premio': '1.380.583,92'}, {'acertos': '14 Pontos', 'vencedores': 191, 'premio': '1.515,59'}, {'acertos': '13 Pontos', 'vencedores': 7696, 'premio': '25,00'}, {'acertos': '12 Pontos', 'vencedores': 105675, 'premio': '10,00'},